[{"position":{"lat":39.9843,"lon":-0.027497},"name":"Av. Mar / Columbretes","code":"1709","address":"Av. Mar / Columbretes","id":2567,"nextBuses":"T1 a Grau (Platja) - 09:37;T1 a Grau (Platja) - 10:07#T1 a UJI - 09:30;T1 a UJI - 09:45#T1 a Grau (Serradal) - 09:21;T1 a Grau (Serradal) - 09:52"},{"position":{"lat":39.983307,"lon":-0.022511},"name":"Av. Mar / Recinto ferial","code":"1701","address":"Av. Mar / Recinto ferial","id":2568,"nextBuses":"T1 a Grau (Platja) - 09:38;T1 a Grau (Platja) - 10:08#T1 a UJI - 09:28;T1 a UJI - 09:43#T1 a Grau (Serradal) - 09:23;T1 a Grau (Serradal) - 09:53"},{"position":{"lat":39.985104,"lon":-0.03145},"name":"Av. Mar / Torreblanca","code":"1702","address":"Av. Mar / Torreblanca","id":2570,"nextBuses":"T1 a Grau (Platja) - 09:34;T1 a Grau (Platja) - 10:04#T1 a UJI - 09:32;T1 a UJI - 09:47#T1 a Grau (Serradal) - 09:18;T1 a Grau (Serradal) - 09:49"},{"position":{"lat":39.9871,"lon":-0.040303},"name":"Plaza Tetuán","code":"1704","address":"Plaza Tetuán","id":2571,"nextBuses":"T1 a Grau (Platja) - 09:27;T1 a Grau (Platja) - 09:57#T1 a Grau (Serradal) - 09:42;T1 a Grau (Serradal) - 09:42"},{"position":{"lat":39.985785,"lon":-0.035338},"name":"Cardona Vives","code":"1703","address":"Cardona Vives","id":2572,"nextBuses":"T1 a Grau (Platja) - 09:31;T1 a Grau (Platja) - 10:01#T1 a Grau (Serradal) - 09:16;T1 a Grau (Serradal) - 09:46"},{"position":{"lat":39.988744,"lon":-0.047098},"name":"Paseo Morella / Parque Ribalta","code":"1677","address":"Paseo Morella / Parque Ribalta","id":2575,"nextBuses":"T1 a Grau (Platja) - 09:23;T1 a Grau (Platja) - 09:53#T1 a UJI - 09:15;T1 a UJI - 09:20#T1 a Grau (Serradal) - 09:38;T1 a Grau (Serradal) - 10:08#T1 a Ribalta - 09:14;T1 a Ribalta - 09:27"},{"position":{"lat":39.989747,"lon":-0.051259},"name":"Estación Intermodal","code":"1678","address":"Estación Intermodal","id":2578,"nextBuses":"T1 a Grau (Platja) - 09:21;T1 a Grau (Platja) - 09:51#T1 a UJI - 09:15;T1 a UJI - 09:16#T1 a Grau (Serradal) - 09:36;T1 a Grau (Serradal) - 10:06#T1 a Ribalta - 09:25;T1 a Ribalta - 09:26"},{"position":{"lat":39.981629,"lon":-0.045742},"name":"República Argentina (Pza. P. Porcar)","code":"1767","address":"República Argentina (Pza. P. Porcar)","id":2580,"nextBuses":"L2 - 09:26;L2 - 09:55#L15 - 09:50;L15 - 10:50"},{"position":{"lat":39.991288,"lon":-0.057997},"name":"Puente Siglo XXI","code":"1679","address":"Puente Siglo XXI","id":2582,"nextBuses":"T1 a Grau (Platja) - 09:19;T1 a Grau (Platja) - 09:49#T1 a UJI - 09:15;T1 a UJI - 09:18#T1 a Grau (Serradal) - 09:34;T1 a Grau (Serradal) - 10:04#T1 a Ribalta - 09:23;T1 a Ribalta - 09:24"},{"position":{"lat":39.984898,"lon":-0.060238},"name":"Quadra Salera (Centro Urban)","code":"1856","address":"Quadra Salera (Centro Urban)","id":2584,"nextBuses":"L10 - 09:34;L10 - 09:59"},{"position":{"lat":39.985489,"lon":-0.065424},"name":"Quadra Saboner (frente nº41)","code":"1859","address":"Quadra Saboner (frente nº41)","id":2585,"nextBuses":"L10 - 09:26;L10 - 09:45"},{"position":{"lat":39.984056,"lon":-0.044829},"name":"Rep.Argentina (Hosp. Prov.)","code":"1768","address":"Rep.Argentina (Hosp. Prov.)","id":2586,"nextBuses":"L2 - 09:25;L2 - 09:54#L4 - 09:41;L4 - 10:11#L7 - 09:54;L7 - 10:49#L15 - 09:49;L15 - 10:49"},{"position":{"lat":39.994414,"lon":-0.068555},"name":"U.J.I.","code":"1749","address":"U.J.I.","id":2587,"nextBuses":"L10 - 09:19;L10 - 09:39#L11 - 09:29;L11 - 09:59#L15 - 09:25;L15 - 10:26"},{"position":{"lat":39.989594,"lon":-0.035585},"name":"Sanahuja nº49","code":"1974","address":"Sanahuja nº49","id":2589,"nextBuses":"L1 - 09:22;L1 - 09:37"},{"position":{"lat":39.989608,"lon":-0.102733},"name":"Venta Guillamón-Benadresa","code":"1903","address":"Venta Guillamón-Benadresa","id":2592,"nextBuses":"L6 - 09:23;L6 - 09:40"},{"position":{"lat":40.007334,"lon":-0.047035},"name":"Tetuán (Policía y Bomberos)","code":"1864","address":"Tetuán (Policía y Bomberos)","id":2593,"nextBuses":"L10 - 09:14;L10 - 09:40"},{"position":{"lat":39.993693,"lon":-0.101459},"name":"Quadra Breva (s/n)","code":"1924","address":"Quadra Breva (s/n)","id":2596,"nextBuses":"L6 - 09:26;L6 - 09:46"},{"position":{"lat":39.987373,"lon":-0.063329},"name":"Quadra Saboner, nº2","code":"1858","address":"Quadra Saboner, nº2","id":2597,"nextBuses":"L10 - 09:25;L10 - 09:44"},{"position":{"lat":39.987387,"lon":-0.042297},"name":"Rda/Mijares-C/Zaragoza","code":"1713","address":"Rda/Mijares-C/Zaragoza","id":2598,"nextBuses":"Empty"},{"position":{"lat":39.991944,"lon":-0.039067},"name":"Ronda Magdalena, nº65","code":"1868","address":"Ronda Magdalena, nº65","id":2601,"nextBuses":"L2 - 09:17;L2 - 09:46#L10 - 09:27;L10 - 09:52"},{"position":{"lat":39.984211,"lon":-0.037844},"name":"Gasset, nº5","code":"1711","address":"Gasset, nº5","id":2602,"nextBuses":"Empty"},{"position":{"lat":39.992445,"lon":-0.0386},"name":"Ronda Magdalena (Pza.Columbretes)","code":"1867","address":"Ronda Magdalena (Pza.Columbretes)","id":2603,"nextBuses":"L2 - 09:32;L2 - 10:02#L10 - 09:30;L10 - 09:54"},{"position":{"lat":39.994724,"lon":-0.03719},"name":"S.Roque (Pza. Teodoro Izquierdo)","code":"1976","address":"S.Roque (Pza. Teodoro Izquierdo)","id":2604,"nextBuses":"L1 - 09:20;L1 - 09:33"},{"position":{"lat":39.992641,"lon":-0.047691},"name":"Av. Vall d\u0027Uixó (Av.Quevedo) B","code":"1728","address":"Av. Vall d\u0027Uixó (Av.Quevedo) B","id":2605,"nextBuses":"Empty"},{"position":{"lat":39.990669,"lon":-0.039953},"name":"Ronda Magdalena, nº41","code":"1869","address":"Ronda Magdalena, nº41","id":2606,"nextBuses":"L2 - 09:18;L2 - 09:47#L10 - 09:28;L10 - 09:53"},{"position":{"lat":39.988933,"lon":-0.046036},"name":"Av.Barcelona (P.Ribalta)","code":"1854","address":"Av.Barcelona (P.Ribalta)","id":2607,"nextBuses":"Empty"},{"position":{"lat":39.986282,"lon":-0.02341},"name":"Recinto Ferial (Mercado)","code":"1722","address":"Recinto Ferial (Mercado)","id":2608,"nextBuses":"Empty"},{"position":{"lat":39.989122,"lon":-0.041098},"name":"Ronda Magdalena, nº23","code":"1870","address":"Ronda Magdalena, nº23","id":2609,"nextBuses":"L2 - 09:20;L2 - 09:49#L10 - 09:29;L10 - 09:54"},{"position":{"lat":39.993658,"lon":-0.038138},"name":"Ronda Magdalena, nº105","code":"1871","address":"Ronda Magdalena, nº105","id":2610,"nextBuses":"L2 - 09:16;L2 - 09:45#L10 - 09:24;L10 - 09:49"},{"position":{"lat":39.987735,"lon":-0.052048},"name":"Pintor Oliet (FFCC)","code":"1732","address":"Pintor Oliet (FFCC)","id":2611,"nextBuses":"L8 - 10:41"},{"position":{"lat":39.987819,"lon":-0.042641},"name":"Paseo Ribalta (La Farola)","code":"1714","address":"Paseo Ribalta (La Farola)","id":2612,"nextBuses":"Empty"},{"position":{"lat":39.987646,"lon":-0.047485},"name":"Av.Barcelona (c.c.)","code":"1741","address":"Av.Barcelona (c.c.)","id":2613,"nextBuses":"Empty"},{"position":{"lat":39.988951,"lon":-0.03792},"name":"Plaza Clavé","code":"1812","address":"Plaza Clavé","id":2614,"nextBuses":"L11 - 09:31;L11 - 09:59"},{"position":{"lat":39.980564,"lon":-0.041783},"name":"Pza. País Valenciá","code":"1799","address":"Pza. País Valenciá","id":2616,"nextBuses":"L1 - 09:17;L1 - 09:30"},{"position":{"lat":39.990513,"lon":-0.047584},"name":"Cardenal Costa,nº 28","code":"1742","address":"Cardenal Costa,nº 28","id":2617,"nextBuses":"Empty"},{"position":{"lat":39.987907,"lon":-0.034112},"name":"Pza. Mª Agustina (Gobernador)","code":"1715","address":"Pza. Mª Agustina (Gobernador)","id":2618,"nextBuses":"L1 - 09:24;L1 - 09:37#L11 - 09:15;L11 - 09:42"},{"position":{"lat":39.991478,"lon":-0.049404},"name":"Cardenal Costa (fte.Ford)","code":"1743","address":"Cardenal Costa (fte.Ford)","id":2620,"nextBuses":"Empty"},{"position":{"lat":39.984039,"lon":-0.044865},"name":"Rep.Argentina (Hosp.Provincial)","code":"1734","address":"Rep.Argentina (Hosp.Provincial)","id":2621,"nextBuses":"Empty"},{"position":{"lat":39.994352,"lon":-0.068593},"name":"U.J.I.","code":"1750","address":"U.J.I.","id":2622,"nextBuses":"Empty"},{"position":{"lat":39.98895,"lon":-0.044571},"name":"Paseo Ribalta,nº 20","code":"1748","address":"Paseo Ribalta,nº 20","id":2623,"nextBuses":"Empty"},{"position":{"lat":39.980802,"lon":-0.064571},"name":"Centro Comercial (Q.Salera)","code":"1727","address":"Centro Comercial (Q.Salera)","id":2624,"nextBuses":"Empty"},{"position":{"lat":39.974628,"lon":-0.049907},"name":"Av.Valencia (Grupo Verge Lledó)","code":"1756","address":"Av.Valencia (Grupo Verge Lledó)","id":2625,"nextBuses":"Empty"},{"position":{"lat":39.985054,"lon":-0.043358},"name":"Ronda Mijares nº35","code":"1761","address":"Ronda Mijares nº35","id":2626,"nextBuses":"Empty"},{"position":{"lat":39.983642,"lon":-0.037775},"name":"Pza. La Paz nº6","code":"1936","address":"Pza. La Paz nº6","id":2627,"nextBuses":"L1 - 09:25#L6 - 09:22;L6 - 09:45"},{"position":{"lat":39.974809,"lon":-0.056304},"name":"PRUEBAS ETRA","code":"1735","address":"PRUEBAS ETRA","id":2628,"nextBuses":"Empty"},{"position":{"lat":39.981743,"lon":-0.036077},"name":"Pza. Fadrell ","code":"1852","address":"Pza. Fadrell ","id":2629,"nextBuses":"L1 - 09:27#L4 - 09:16;L4 - 09:48#L8 - 10:28;L8 - 11:48"},{"position":{"lat":40.000095,"lon":-0.045379},"name":"Av. Castell Vell (Av. Diput.)","code":"1730","address":"Av. Castell Vell (Av. Diput.)","id":2631,"nextBuses":"Empty"},{"position":{"lat":39.993824,"lon":-0.059855},"name":"Escuela Oficial Idiomas B","code":"1764","address":"Escuela Oficial Idiomas B","id":2632,"nextBuses":"Empty"},{"position":{"lat":39.982358,"lon":-0.063064},"name":"Rtda. Salera (Pista Atletismo)","code":"1865","address":"Rtda. Salera (Pista Atletismo)","id":2633,"nextBuses":"L10 - 09:33;L10 - 09:58"},{"position":{"lat":39.990559,"lon":-0.039865},"name":"Ronda Magdalena (Capuchinos)","code":"1815","address":"Ronda Magdalena (Capuchinos)","id":2634,"nextBuses":"L2 - 09:32;L2 - 10:02#L10 - 09:29;L10 - 09:53#L11 - 09:34;L11 - 10:01"},{"position":{"lat":39.974809,"lon":-0.056304},"name":"Polideportivo Ciudad de Castellón","code":"1733","address":"Polideportivo Ciudad de Castellón","id":2635,"nextBuses":"L1 - 09:29;L1 - 09:44#L2 - 09:14;L2 - 09:45#L15 - 10:09;L15 - 11:09"},{"position":{"lat":39.987847,"lon":-0.052219},"name":"Pintor Oliet (Estación Intermodal)","code":"1731","address":"Pintor Oliet (Estación Intermodal)","id":2636,"nextBuses":"Empty"},{"position":{"lat":39.994679,"lon":-0.037555},"name":"Rda. Magdalena (Pza. Teodoro Izquierdo)","code":"1872","address":"Rda. Magdalena (Pza. Teodoro Izquierdo)","id":2637,"nextBuses":"L2 - 09:34;L2 - 10:04#L10 - 09:31;L10 - 09:54"},{"position":{"lat":39.992375,"lon":-0.050689},"name":"Cementerio","code":"1775","address":"Cementerio","id":2640,"nextBuses":"Empty"},{"position":{"lat":39.988959,"lon":-0.044606},"name":"Paseo Ribalta, nº20","code":"1746","address":"Paseo Ribalta, nº20","id":2641,"nextBuses":"L15 - 09:18;L15 - 10:19"},{"position":{"lat":39.97662,"lon":-0.047129},"name":"Av.Valencia (Pza. Libertad) A","code":"1755","address":"Av.Valencia (Pza. Libertad) A","id":2642,"nextBuses":"Empty"},{"position":{"lat":39.98744,"lon":-0.04295},"name":"Paseo Ribalta Impares","code":"1909","address":"Paseo Ribalta Impares","id":2643,"nextBuses":"L2 - 09:23;L2 - 09:52#L6 - 09:29;L6 - 09:50"},{"position":{"lat":39.987818,"lon":-0.042606},"name":"Paseo Ribalta (Farola)","code":"1712","address":"Paseo Ribalta (Farola)","id":2644,"nextBuses":"L10 - 09:30;L10 - 09:55"},{"position":{"lat":40.003486,"lon":-0.082855},"name":"Nuevo Cementerio","code":"1780","address":"Nuevo Cementerio","id":2645,"nextBuses":"Empty"},{"position":{"lat":39.989657,"lon":-0.051485},"name":"Paseo Morella (FFCC)","code":"1747","address":"Paseo Morella (FFCC)","id":2646,"nextBuses":"Empty"},{"position":{"lat":39.997019,"lon":-0.065422},"name":"Grupo Roser A","code":"1779","address":"Grupo Roser A","id":2647,"nextBuses":"Empty"},{"position":{"lat":39.996952,"lon":-0.065987},"name":"Grupo Roser B","code":"1778","address":"Grupo Roser B","id":2648,"nextBuses":"Empty"},{"position":{"lat":39.983033,"lon":-0.045342},"name":"Padre Jofre (Rep. Argentina)","code":"1886","address":"Padre Jofre (Rep. Argentina)","id":2649,"nextBuses":"L4 - 09:43#L7 - 09:56;L7 - 10:51"},{"position":{"lat":39.993752,"lon":-0.063758},"name":"Av. Sos Baynat (frente campus UJI)","code":"1794","address":"Av. Sos Baynat (frente campus UJI)","id":2650,"nextBuses":"Empty"},{"position":{"lat":39.974947,"lon":-0.056075},"name":"Músico Pascual Asencio nº42","code":"1758","address":"Músico Pascual Asencio nº42","id":2651,"nextBuses":"L1 - 09:23;L1 - 09:35#L2 - 09:34;L2 - 10:03#L15 - 09:56;L15 - 10:57"},{"position":{"lat":39.985031,"lon":-0.045982},"name":"Av.Dr.Clará (fte. Hospital)","code":"1777","address":"Av.Dr.Clará (fte. Hospital)","id":2653,"nextBuses":"Empty"},{"position":{"lat":39.993245,"lon":-0.062574},"name":"José Mª Mulet, nº24","code":"1765","address":"José Mª Mulet, nº24","id":2654,"nextBuses":"L10 - 09:18;L10 - 09:37#L11 - 09:17;L11 - 09:43#L15 - 09:24;L15 - 10:24"},{"position":{"lat":39.979123,"lon":-0.04318},"name":"Av.Burriana nº 4","code":"1796","address":"Av.Burriana nº 4","id":2655,"nextBuses":"Empty"},{"position":{"lat":39.973259,"lon":-0.053104},"name":"Músico Pascual Asencio nº3","code":"1757","address":"Músico Pascual Asencio nº3","id":2656,"nextBuses":"L1 - 09:31#L2 - 09:16;L2 - 09:46#L15 - 10:11;L15 - 11:11"},{"position":{"lat":39.992206,"lon":-0.051106},"name":"Cementerio (S.José)","code":"1782","address":"Cementerio (S.José)","id":2657,"nextBuses":"Empty"},{"position":{"lat":39.973852,"lon":-0.053746},"name":"Músico Pascual Asensio nº4","code":"1759","address":"Músico Pascual Asensio nº4","id":2658,"nextBuses":"L1 - 09:22;L1 - 09:35#L2 - 09:33;L2 - 10:02#L8 - 10:33;L8 - 11:53#L15 - 09:55;L15 - 10:56"},{"position":{"lat":39.979236,"lon":-0.038082},"name":"Godofredo Buenos Aires (Parque)","code":"1798","address":"Godofredo Buenos Aires (Parque)","id":2660,"nextBuses":"Empty"},{"position":{"lat":39.995815,"lon":-0.054195},"name":"Cementerio (Quadra Borriolenc)","code":"1781","address":"Cementerio (Quadra Borriolenc)","id":2661,"nextBuses":"L8 - 09:17;L8 - 10:45"},{"position":{"lat":39.977382,"lon":-0.032893},"name":"Godofredo Buenos Aires (Cruz Roja)","code":"1801","address":"Godofredo Buenos Aires (Cruz Roja)","id":2662,"nextBuses":"Empty"},{"position":{"lat":39.987037,"lon":-0.035298},"name":"Mayor nº82 (Iglesia S.Agustín)","code":"1978","address":"Mayor nº82 (Iglesia S.Agustín)","id":2663,"nextBuses":"L1 - 09:16;L1 - 09:29"},{"position":{"lat":39.992695,"lon":-0.055465},"name":"Ctra. Borriol (Tanatorio)","code":"1774","address":"Ctra. Borriol (Tanatorio)","id":2665,"nextBuses":"L8 - 09:15;L8 - 10:43"},{"position":{"lat":39.98742,"lon":-0.062331},"name":"Ctra. Alcora (Quadra Saboner)","code":"1785","address":"Ctra. Alcora (Quadra Saboner)","id":2666,"nextBuses":"L6 - 09:36"},{"position":{"lat":39.985014,"lon":-0.036849},"name":"Mayor (Sta.Clara)","code":"1979","address":"Mayor (Sta.Clara)","id":2667,"nextBuses":"L1 - 09:14;L1 - 09:26"},{"position":{"lat":39.995344,"lon":-0.039939},"name":"Huesca (frente Trinquet)","code":"1873","address":"Huesca (frente Trinquet)","id":2669,"nextBuses":"L10 - 09:22;L10 - 09:47"},{"position":{"lat":39.986287,"lon":-0.055319},"name":"Ctra. Alcora (Mas Blau)","code":"1791","address":"Ctra. Alcora (Mas Blau)","id":2670,"nextBuses":"L6 - 09:15;L6 - 09:35"},{"position":{"lat":39.98772,"lon":-0.063173},"name":"Ctra. Alcora (Quadra Saboner)","code":"1786","address":"Ctra. Alcora (Quadra Saboner)","id":2671,"nextBuses":"L6 - 09:17;L6 - 09:37#L10 - 09:36"},{"position":{"lat":40.001975,"lon":-0.042135},"name":"Hospital General","code":"1816","address":"Hospital General","id":2672,"nextBuses":"L1 - 09:17;L1 - 09:31#L2 - 09:41;L2 - 10:11#L10 - 09:18;L10 - 09:43#L8 - 10:19;L8 - 11:39"},{"position":{"lat":39.995695,"lon":-0.037476},"name":"Estadio Castalia","code":"1817","address":"Estadio Castalia","id":2673,"nextBuses":"Empty"},{"position":{"lat":39.981865,"lon":-0.039093},"name":"Herrero 15","code":"1875","address":"Herrero 15","id":2674,"nextBuses":"L1 - 09:23;L1 - 09:41#L4 - 09:46#L7 - 09:35;L7 - 10:29"},{"position":{"lat":39.982442,"lon":-0.063201},"name":"Cruce Quadra Salera","code":"1880","address":"Cruce Quadra Salera","id":2675,"nextBuses":"Empty"},{"position":{"lat":39.983894,"lon":-0.028654},"name":"Pablo Iglesias (fte. Edificio Goliat)","code":"1836","address":"Pablo Iglesias (fte. Edificio Goliat)","id":2676,"nextBuses":"Empty"},{"position":{"lat":39.979653,"lon":-0.040675},"name":"Herrero 41","code":"1874","address":"Herrero 41","id":2677,"nextBuses":"L1 - 09:21;L1 - 09:39#L4 - 09:45#L7 - 09:32;L7 - 10:27"},{"position":{"lat":39.985479,"lon":-0.033901},"name":"Av. Mar (Asilo)","code":"1830","address":"Av. Mar (Asilo)","id":2679,"nextBuses":"Empty"},{"position":{"lat":39.998486,"lon":-0.046947},"name":"Grupo S. Marcos","code":"1827","address":"Grupo S. Marcos","id":2680,"nextBuses":"L8 - 09:18;L8 - 10:47"},{"position":{"lat":39.979973,"lon":-0.06066},"name":"Centro Comercial (Salera)","code":"1882","address":"Centro Comercial (Salera)","id":2681,"nextBuses":"Empty"},{"position":{"lat":39.9909,"lon":-0.030669},"name":"Av. de Lledó","code":"1937","address":"Av. de Lledó","id":2682,"nextBuses":"Empty"},{"position":{"lat":39.983632,"lon":-0.037752},"name":"Pza. La Paz nº 6","code":"1902","address":"Pza. La Paz nº 6","id":2683,"nextBuses":"Empty"},{"position":{"lat":39.979908,"lon":-0.065569},"name":"Centro Comercial B","code":"1883","address":"Centro Comercial B","id":2684,"nextBuses":"Empty"},{"position":{"lat":40.006496,"lon":-0.041729},"name":"Grupo S. Antonio","code":"1863","address":"Grupo S. Antonio","id":2685,"nextBuses":"L10 - 09:16;L10 - 09:41"},{"position":{"lat":39.997909,"lon":-0.02055},"name":"Basílica de Lledó","code":"1938","address":"Basílica de Lledó","id":2686,"nextBuses":"Empty"},{"position":{"lat":39.989182,"lon":-0.0336},"name":"Av. Lledó 12, Pza. Mª Agustina","code":"1941","address":"Av. Lledó 12, Pza. Mª Agustina","id":2687,"nextBuses":"Empty"},{"position":{"lat":39.980613,"lon":-0.071686},"name":"Grupo S. Lorenzo A","code":"1947","address":"Grupo S. Lorenzo A","id":2688,"nextBuses":"Empty"},{"position":{"lat":39.989275,"lon":-0.033702},"name":"Av.de Lledó 3 (Pza. Mª Agustina)","code":"1939","address":"Av.de Lledó 3 (Pza. Mª Agustina)","id":2689,"nextBuses":"Empty"},{"position":{"lat":39.982393,"lon":-0.060908},"name":"Pista atletismo Gaetá H. B","code":"1944","address":"Pista atletismo Gaetá H. B","id":2690,"nextBuses":"Empty"},{"position":{"lat":39.994021,"lon":-0.025228},"name":"Auditorio/Palacio de Congresos","code":"1942","address":"Auditorio/Palacio de Congresos","id":2691,"nextBuses":"Empty"},{"position":{"lat":39.974684,"lon":-0.057058},"name":"Gran Vía T.M. (Polideportivo) B","code":"1891","address":"Gran Vía T.M. (Polideportivo) B","id":2692,"nextBuses":"L7 - 09:26;L7 - 10:20"},{"position":{"lat":39.991416,"lon":-0.026571},"name":"Pintor Carbó (Esq. Columbretes)","code":"1962","address":"Pintor Carbó (Esq. Columbretes)","id":2693,"nextBuses":"Empty"},{"position":{"lat":39.987326,"lon":-0.043084},"name":"Paseo Ribalta Impares","code":"1913","address":"Paseo Ribalta Impares","id":2694,"nextBuses":"Empty"},{"position":{"lat":39.991028,"lon":-0.030757},"name":"Av. de Lledó (Colegio Consolación)","code":"1940","address":"Av. de Lledó (Colegio Consolación)","id":2695,"nextBuses":"Empty"},{"position":{"lat":39.982392,"lon":-0.049526},"name":"Gran Vía T.M. (Barrachina)","code":"1848","address":"Gran Vía T.M. (Barrachina)","id":2696,"nextBuses":"L8 - 10:37;L8 - 11:57"},{"position":{"lat":40.001883,"lon":-0.048031},"name":"Quadra Segona,nº15","code":"1958","address":"Quadra Segona,nº15","id":2697,"nextBuses":"Empty"},{"position":{"lat":39.985843,"lon":-0.034401},"name":"Gobernador (Pza. Cardona Vives)","code":"1850","address":"Gobernador (Pza. Cardona Vives)","id":2698,"nextBuses":"L1 - 09:25#L8 - 10:26;L8 - 11:46"},{"position":{"lat":39.968672,"lon":-0.062936},"name":"Grupo Lourdes","code":"1952","address":"Grupo Lourdes","id":2699,"nextBuses":"Empty"},{"position":{"lat":39.995668,"lon":-0.037477},"name":"Estadio Castalia","code":"1851","address":"Estadio Castalia","id":2700,"nextBuses":"L2 - 09:15;L2 - 09:43#L8 - 10:21;L8 - 11:41"},{"position":{"lat":39.99151,"lon":-0.028452},"name":"Pintor Carbó (Parque)","code":"1961","address":"Pintor Carbó (Parque)","id":2701,"nextBuses":"Empty"},{"position":{"lat":39.98227,"lon":-0.061018},"name":"Pista atletismo Gaetá H. A","code":"1945","address":"Pista atletismo Gaetá H. A","id":2702,"nextBuses":"Empty"},{"position":{"lat":40.000378,"lon":-0.052277},"name":"Quadra Segona, nº57","code":"1957","address":"Quadra Segona, nº57","id":2704,"nextBuses":"Empty"},{"position":{"lat":39.984222,"lon":-0.037913},"name":"Gasset 5","code":"1720","address":"Gasset 5","id":2705,"nextBuses":"L4 - 09:37;L4 - 10:07#L7 - 09:51;L7 - 10:46"},{"position":{"lat":39.97779,"lon":-0.063365},"name":"Rotonda Enrique Gimeno","code":"1954","address":"Rotonda Enrique Gimeno","id":2706,"nextBuses":"Empty"},{"position":{"lat":39.996211,"lon":-0.053452},"name":"Grupo S. Enrique","code":"1963","address":"Grupo S. Enrique","id":2707,"nextBuses":"Empty"},{"position":{"lat":40.001948,"lon":-0.042101},"name":"Hospital General","code":"1818","address":"Hospital General","id":2708,"nextBuses":"Empty"},{"position":{"lat":39.996119,"lon":-0.053374},"name":"Quadra Borriolenc (S.Enrique)","code":"1966","address":"Quadra Borriolenc (S.Enrique)","id":2709,"nextBuses":"Empty"},{"position":{"lat":39.998277,"lon":-0.068507},"name":"Rotonda (escult. silla) A","code":"1960","address":"Rotonda (escult. silla) A","id":2710,"nextBuses":"Empty"},{"position":{"lat":39.997203,"lon":-0.050692},"name":"Quadra Borriolenc, nº10","code":"1965","address":"Quadra Borriolenc, nº10","id":2711,"nextBuses":"Empty"},{"position":{"lat":40.001981,"lon":-0.075341},"name":"Rotonda Hospital La Magdalena","code":"1969","address":"Rotonda Hospital La Magdalena","id":2712,"nextBuses":"Empty"},{"position":{"lat":39.997095,"lon":-0.050685},"name":"Quadra Borriolenc (S.Bartolomé)","code":"1967","address":"Quadra Borriolenc (S.Bartolomé)","id":2713,"nextBuses":"Empty"},{"position":{"lat":39.989882,"lon":-0.066371},"name":"Av. Sos Baynat","code":"1795","address":"Av. Sos Baynat","id":2714,"nextBuses":"L10 - 09:14;L10 - 09:38"},{"position":{"lat":39.978396,"lon":-0.077705},"name":"Quadra Morteras","code":"1950","address":"Quadra Morteras","id":2715,"nextBuses":"L4 - 09:28;L4 - 09:58"},{"position":{"lat":39.991247,"lon":-0.027328},"name":"Pintor Carbó","code":"1956","address":"Pintor Carbó","id":2716,"nextBuses":"Empty"},{"position":{"lat":39.979399,"lon":-0.052617},"name":"Gran Vía T. M. (Hospital)","code":"1834","address":"Gran Vía T. M. (Hospital)","id":2717,"nextBuses":"L4 - 09:42;L4 - 10:12#L7 - 09:28;L7 - 10:22#L8 - 10:35;L8 - 11:55"},{"position":{"lat":39.99366,"lon":-0.101203},"name":"Quadra Breva (nº39)","code":"1923","address":"Quadra Breva (nº39)","id":2718,"nextBuses":"L6 - 09:24;L6 - 09:41"},{"position":{"lat":39.993823,"lon":-0.05982},"name":"Escuela Oficial Idiomas B","code":"1752","address":"Escuela Oficial Idiomas B","id":2719,"nextBuses":"L10 - 09:19;L10 - 09:43#L11 - 09:33;L11 - 10:03#L15 - 09:41;L15 - 10:41"},{"position":{"lat":39.978433,"lon":-0.075994},"name":"Quadra Morteras (fte.C.Univ.)","code":"1949","address":"Quadra Morteras (fte.C.Univ.)","id":2720,"nextBuses":"L4 - 09:28;L4 - 09:59"},{"position":{"lat":39.995463,"lon":-0.096255},"name":"Quadra Portolés (cruce Ribesalbes)","code":"1912","address":"Quadra Portolés (cruce Ribesalbes)","id":2721,"nextBuses":"L6 - 09:24;L6 - 09:44"},{"position":{"lat":39.992529,"lon":-0.036594},"name":"S.Roque nº95","code":"1975","address":"S.Roque nº95","id":2722,"nextBuses":"L1 - 09:21;L1 - 09:34"},{"position":{"lat":39.998623,"lon":-0.047012},"name":"Grupo S.Marcos y S.Agustin","code":"1964","address":"Grupo S.Marcos y S.Agustin","id":2724,"nextBuses":"Empty"},{"position":{"lat":39.993952,"lon":-0.05992},"name":"Escuela Oficial Idiomas A","code":"1754","address":"Escuela Oficial Idiomas A","id":2725,"nextBuses":"L10 - 09:17;L10 - 09:35#L11 - 09:17;L11 - 09:42#L15 - 09:24;L15 - 10:24"},{"position":{"lat":39.995318,"lon":-0.091541},"name":"Ctra. Alcora nº391 (Venta Rosita)","code":"1929","address":"Ctra. Alcora nº391 (Venta Rosita)","id":2727,"nextBuses":"L6 - 09:29;L6 - 09:46"},{"position":{"lat":39.996237,"lon":-0.100544},"name":"Quadra Breva (Ambulatorio)","code":"1927","address":"Quadra Breva (Ambulatorio)","id":2728,"nextBuses":"L6 - 09:25;L6 - 09:45"},{"position":{"lat":39.99626,"lon":-0.092836},"name":"Ctra. Alcora (nº256)","code":"1928","address":"Ctra. Alcora (nº256)","id":2729,"nextBuses":"L6 - 09:22;L6 - 09:42"},{"position":{"lat":39.999366,"lon":-0.044345},"name":"Quadra Borriolenc (Tombatossals)","code":"1723","address":"Quadra Borriolenc (Tombatossals)","id":2730,"nextBuses":"L8 - 09:19;L8 - 10:48"},{"position":{"lat":40.000341,"lon":-0.041972},"name":"Quadra Borriolenc","code":"1971","address":"Quadra Borriolenc","id":2731,"nextBuses":"L2 - 09:36;L2 - 10:06"},{"position":{"lat":39.981299,"lon":-0.074596},"name":"Quadra los Cubos","code":"1951","address":"Quadra los Cubos","id":2733,"nextBuses":"L4 - 09:32;L4 - 10:02"},{"position":{"lat":39.997822,"lon":-0.095487},"name":"Ctra. Alcora (Centro Penitenciario)","code":"1930","address":"Ctra. Alcora (Centro Penitenciario)","id":2734,"nextBuses":"L6 - 09:28;L6 - 09:45"},{"position":{"lat":39.987891,"lon":-0.041924},"name":"Ronda Magdalena nº10","code":"1718","address":"Ronda Magdalena nº10","id":2735,"nextBuses":"L2 - 09:30;L2 - 10:00"},{"position":{"lat":40.018936,"lon":-0.053751},"name":"Urb.Torreta (fin de línea)","code":"1840","address":"Urb.Torreta (fin de línea)","id":2737,"nextBuses":"L8 - 10:00;L8 - 11:20"},{"position":{"lat":39.986106,"lon":-0.055303},"name":"Ctra. Alcora (Mas Blau)","code":"1790","address":"Ctra. Alcora (Mas Blau)","id":2738,"nextBuses":"L6 - 09:15;L6 - 09:37"},{"position":{"lat":39.989365,"lon":-0.040748},"name":"Ronda Magdalena,  nº38","code":"1710","address":"Ronda Magdalena,  nº38","id":2740,"nextBuses":"L2 - 09:31;L2 - 10:01"},{"position":{"lat":39.990944,"lon":-0.075964},"name":"Ctra. Alcora (Grupo Reyes)","code":"1914","address":"Ctra. Alcora (Grupo Reyes)","id":2741,"nextBuses":"L6 - 09:19;L6 - 09:39"},{"position":{"lat":39.991724,"lon":-0.079748},"name":"Ctra. Alcora (Autopista)","code":"1916","address":"Ctra. Alcora (Autopista)","id":2742,"nextBuses":"L6 - 09:19;L6 - 09:39"},{"position":{"lat":40.016506,"lon":-0.050657},"name":"Joan Miró (A)","code":"1845","address":"Joan Miró (A)","id":2743,"nextBuses":"L8 - 10:01;L8 - 11:21"},{"position":{"lat":39.97433,"lon":0.010767},"name":"Joan d\u0027Austria","code":"1691","address":"Joan d\u0027Austria","id":2745,"nextBuses":"LT Serradal - 09:36;LT Serradal - 10:06#LT Platja - 09:14;LT Platja - 09:21"},{"position":{"lat":39.9715,"lon":0.012992},"name":"Av. del Port","code":"1692","address":"Av. del Port","id":2747,"nextBuses":"LT Serradal - 09:38;LT Serradal - 10:08#LT Platja - 09:16;LT Platja - 09:23"},{"position":{"lat":39.974371,"lon":0.015476},"name":"Passeig Bonavista / Rotonda Centenari","code":"1693","address":"Passeig Bonavista / Rotonda Centenari","id":2748,"nextBuses":"LT Serradal - 09:39;LT Serradal - 10:09#LT Platja - 09:17;LT Platja - 09:24"},{"position":{"lat":39.992562,"lon":-0.063693},"name":"Arrabal universitario","code":"1680","address":"Arrabal universitario","id":2750,"nextBuses":"T1 a Grau (Platja) - 09:16;T1 a Grau (Platja) - 09:46#T1 a UJI - 09:17;T1 a UJI - 09:20#T1 a Grau (Serradal) - 09:31;T1 a Grau (Serradal) - 10:01#T1 a Ribalta - 09:21;T1 a Ribalta - 09:21"},{"position":{"lat":39.977201,"lon":-0.054714},"name":"Gran Vía T. M. (Grupo Diago)","code":"1835","address":"Gran Vía T. M. (Grupo Diago)","id":2751,"nextBuses":"L7 - 09:27;L7 - 10:21#L8 - 10:35;L8 - 11:55"},{"position":{"lat":39.988711,"lon":-0.033843},"name":"Rafalafena (Mª Agustina)","code":"1807","address":"Rafalafena (Mª Agustina)","id":2752,"nextBuses":"L11 - 09:28;L11 - 09:55"},{"position":{"lat":39.988207,"lon":-0.03068},"name":"Rafalafena (Biblioteca)","code":"1809","address":"Rafalafena (Biblioteca)","id":2753,"nextBuses":"L11 - 09:27;L11 - 09:54"},{"position":{"lat":40.008262,"lon":-0.057666},"name":"Tossal Gros","code":"1841","address":"Tossal Gros","id":2754,"nextBuses":"L8 - 10:04;L8 - 11:24"},{"position":{"lat":39.997287,"lon":-0.06958},"name":"U.J.I. rotonda","code":"1959","address":"U.J.I. rotonda","id":2755,"nextBuses":"Empty"},{"position":{"lat":39.985654,"lon":-0.042489},"name":"San Vicente nº54","code":"1716","address":"San Vicente nº54","id":2756,"nextBuses":"L4 - 09:39;L4 - 10:09#L6 - 09:25;L6 - 09:48#L7 - 09:53;L7 - 10:48"},{"position":{"lat":39.994427,"lon":-0.068547},"name":"Universitat Jaume I","code":"1681","address":"Universitat Jaume I","id":2757,"nextBuses":"T1 a Grau (Platja) - 09:15;T1 a Grau (Platja) - 09:45#T1 a UJI - 09:22;T1 a UJI - 09:24#T1 a Grau (Serradal) - 09:30;T1 a Grau (Serradal) - 10:00#T1 a Ribalta - 09:20;T1 a Ribalta - 09:28"},{"position":{"lat":39.989771,"lon":-0.051363},"name":"Paseo Morella (FFCC)","code":"1745","address":"Paseo Morella (FFCC)","id":2758,"nextBuses":"L10 - 09:22;L10 - 09:46#L11 - 09:35;L11 - 10:05#L15 - 09:43;L15 - 10:43"},{"position":{"lat":40.001039,"lon":-0.075135},"name":"Camino Enramada","code":"1968","address":"Camino Enramada","id":2759,"nextBuses":"Empty"},{"position":{"lat":39.984544,"lon":-0.042408},"name":"Navarra nº93","code":"1925","address":"Navarra nº93","id":2760,"nextBuses":"L6 - 09:20;L6 - 09:43"},{"position":{"lat":39.975807,"lon":-0.034694},"name":"Río Nalón (Fte. nº2)","code":"1803","address":"Río Nalón (Fte. nº2)","id":2761,"nextBuses":"Empty"},{"position":{"lat":39.987908,"lon":-0.028866},"name":"Rafalafena (Ambulatorio)","code":"1811","address":"Rafalafena (Ambulatorio)","id":2762,"nextBuses":"L11 - 09:26;L11 - 09:53"},{"position":{"lat":39.996206,"lon":-0.100358},"name":"Quadra Breva (Ambulatorio)","code":"1926","address":"Quadra Breva (Ambulatorio)","id":2763,"nextBuses":"L6 - 09:25;L6 - 09:41"},{"position":{"lat":39.985076,"lon":-0.036811},"name":"Mayor (Sta. Clara)","code":"1980","address":"Mayor (Sta. Clara)","id":2764,"nextBuses":"Empty"},{"position":{"lat":39.986809,"lon":-0.042568},"name":"Ronda Mijares, nº13","code":"1917","address":"Ronda Mijares, nº13","id":2765,"nextBuses":"L2 - 09:28;L2 - 09:58"},{"position":{"lat":39.988768,"lon":-0.037811},"name":"Pza. Clavé nº10","code":"1717","address":"Pza. Clavé nº10","id":2766,"nextBuses":"L11 - 09:40"},{"position":{"lat":40.016557,"lon":-0.05055},"name":"Joan Miró (B)","code":"1843","address":"Joan Miró (B)","id":2767,"nextBuses":"L8 - 09:14;L8 - 10:57"},{"position":{"lat":39.974247,"lon":-0.033568},"name":"Comisaría Policía (Río Sella)","code":"1802","address":"Comisaría Policía (Río Sella)","id":2768,"nextBuses":"Empty"},{"position":{"lat":39.989941,"lon":-0.06658},"name":"Av. Sos Baynat","code":"1783","address":"Av. Sos Baynat","id":2769,"nextBuses":"L10 - 09:23;L10 - 09:42"},{"position":{"lat":39.980301,"lon":-0.046642},"name":"Parque Oeste (Instituto F.P.)","code":"1884","address":"Parque Oeste (Instituto F.P.)","id":2770,"nextBuses":"L4 - 09:44;L4 - 10:14#L7 - 09:30;L7 - 10:24"},{"position":{"lat":39.972338,"lon":-0.050533},"name":"Panderola, nº17","code":"1833","address":"Panderola, nº17","id":2771,"nextBuses":"L8 - 10:32;L8 - 11:52"},{"position":{"lat":39.982132,"lon":-0.035112},"name":"Maestro Ripollés (Pza. Fadrell)","code":"1892","address":"Maestro Ripollés (Pza. Fadrell)","id":2772,"nextBuses":"L7 - 09:37;L7 - 10:31"},{"position":{"lat":39.98318,"lon":-0.028884},"name":"Pablo Iglesias 10","code":"1721","address":"Pablo Iglesias 10","id":2773,"nextBuses":"L4 - 09:31;L4 - 10:01#L7 - 09:44;L7 - 10:38"},{"position":{"lat":39.980727,"lon":-0.071599},"name":"Grupo S. Lorenzo B","code":"1946","address":"Grupo S. Lorenzo B","id":2774,"nextBuses":"L4 - 09:25;L4 - 09:55"},{"position":{"lat":39.981424,"lon":-0.074918},"name":"Grupo S. Fermín","code":"1948","address":"Grupo S. Fermín","id":2775,"nextBuses":"L4 - 09:26;L4 - 09:56"},{"position":{"lat":39.968669,"lon":-0.062819},"name":"Grupo Lourdes B","code":"1885","address":"Grupo Lourdes B","id":2776,"nextBuses":"L7 - 10:05;L7 - 10:59"},{"position":{"lat":39.979527,"lon":-0.05267},"name":"Gran Vía T. M. (Hospital) B","code":"1888","address":"Gran Vía T. M. (Hospital) B","id":2777,"nextBuses":"L4 - 09:16;L4 - 09:47#L7 - 10:00;L7 - 10:55"},{"position":{"lat":39.977215,"lon":-0.054936},"name":"Gran Vía T.M. (Grupo Diago)","code":"1890","address":"Gran Vía T.M. (Grupo Diago)","id":2778,"nextBuses":"L7 - 10:01;L7 - 10:56"},{"position":{"lat":39.974894,"lon":-0.057178},"name":"Gran Vía T.M. (Polideportivo) A","code":"1893","address":"Gran Vía T.M. (Polideportivo) A","id":2779,"nextBuses":"L7 - 10:02;L7 - 10:57"},{"position":{"lat":39.989638,"lon":-0.102849},"name":"Benadresa (Venta Guillamón)","code":"1904","address":"Benadresa (Venta Guillamón)","id":2780,"nextBuses":"L6 - 09:26;L6 - 09:46"},{"position":{"lat":39.997562,"lon":-0.09695},"name":"Quadra Portolés (Nuevo tramo)","code":"1908","address":"Quadra Portolés (Nuevo tramo)","id":2781,"nextBuses":"L6 - 09:26;L6 - 09:43"},{"position":{"lat":39.997483,"lon":-0.097036},"name":"Quadra Portolés (Nuevo tramo)","code":"1910","address":"Quadra Portolés (Nuevo tramo)","id":2782,"nextBuses":"L6 - 09:24;L6 - 09:44"},{"position":{"lat":39.995357,"lon":-0.095955},"name":"Quadra Portolés (cruce Ribesalbes)","code":"1911","address":"Quadra Portolés (cruce Ribesalbes)","id":2783,"nextBuses":"L6 - 09:26;L6 - 09:42"},{"position":{"lat":39.97737,"lon":-0.0317},"name":"Pza. Fdo.Católico (Cruz Roja)","code":"1955","address":"Pza. Fdo.Católico (Cruz Roja)","id":2784,"nextBuses":"L4 - 09:18;L4 - 09:51"},{"position":{"lat":39.979726,"lon":-0.034712},"name":"Pza. Dr.Marañón, nº7","code":"1943","address":"Pza. Dr.Marañón, nº7","id":2785,"nextBuses":"L4 - 09:17;L4 - 09:50"},{"position":{"lat":39.990901,"lon":-0.111567},"name":"Ctra. Ribesalbes (Grupo Pilar s/n)","code":"1918","address":"Ctra. Ribesalbes (Grupo Pilar s/n)","id":2786,"nextBuses":"L6 - 09:29"},{"position":{"lat":39.990086,"lon":-0.107046},"name":"Ctra. Ribesalbes (Grupo Pilar nº151)","code":"1919","address":"Ctra. Ribesalbes (Grupo Pilar nº151)","id":2787,"nextBuses":"L6 - 09:21;L6 - 09:37"},{"position":{"lat":39.989444,"lon":-0.103724},"name":"Ctra. Ribesalbes (Grupo Pilar nº125)","code":"1920","address":"Ctra. Ribesalbes (Grupo Pilar nº125)","id":2788,"nextBuses":"L6 - 09:23;L6 - 09:38"},{"position":{"lat":39.990236,"lon":-0.106957},"name":"Ctra. Ribesalbes (Grupo Pilar nº50)","code":"1921","address":"Ctra. Ribesalbes (Grupo Pilar nº50)","id":2789,"nextBuses":"L6 - 09:28"},{"position":{"lat":39.98956,"lon":-0.10366},"name":"Ctra. Ribesalbes (Grupo Pilar nº40)","code":"1922","address":"Ctra. Ribesalbes (Grupo Pilar nº40)","id":2790,"nextBuses":"L6 - 09:27;L6 - 09:47"},{"position":{"lat":39.998076,"lon":-0.09557},"name":"Ctra. Alcora (Centro Penitenciario)","code":"1931","address":"Ctra. Alcora (Centro Penitenciario)","id":2791,"nextBuses":"L6 - 09:22;L6 - 09:42"},{"position":{"lat":39.996077,"lon":-0.092715},"name":"Ctra. Alcora (Venta Rosita)","code":"1932","address":"Ctra. Alcora (Venta Rosita)","id":2792,"nextBuses":"L6 - 09:29;L6 - 09:45"},{"position":{"lat":39.995536,"lon":-0.091614},"name":"Ctra. Alcora (Venta Rosita)","code":"1933","address":"Ctra. Alcora (Venta Rosita)","id":2793,"nextBuses":"L6 - 09:21;L6 - 09:41"},{"position":{"lat":39.992676,"lon":-0.086055},"name":"Ctra. Alcora (Venta Nueva)","code":"1934","address":"Ctra. Alcora (Venta Nueva)","id":2794,"nextBuses":"L6 - 09:30;L6 - 09:47"},{"position":{"lat":39.993118,"lon":-0.086786},"name":"Ctra. Alcora (Venta nueva)","code":"1935","address":"Ctra. Alcora (Venta nueva)","id":2795,"nextBuses":"L6 - 09:20;L6 - 09:40"},{"position":{"lat":39.989973,"lon":-0.072106},"name":"Ctra. Alcora (S. José Obrero)","code":"1905","address":"Ctra. Alcora (S. José Obrero)","id":2796,"nextBuses":"L6 - 09:34;L6 - 09:51"},{"position":{"lat":39.990808,"lon":-0.075911},"name":"Ctra. Alcora (Grupo Reyes)","code":"1907","address":"Ctra. Alcora (Grupo Reyes)","id":2797,"nextBuses":"L6 - 09:32;L6 - 09:49"},{"position":{"lat":39.991568,"lon":-0.079954},"name":"Ctra. Alcora (Autopista)","code":"1915","address":"Ctra. Alcora (Autopista)","id":2798,"nextBuses":"L6 - 09:31;L6 - 09:48"},{"position":{"lat":39.982672,"lon":-0.043191},"name":"Ronda Mijares, nº87","code":"1751","address":"Ronda Mijares, nº87","id":2799,"nextBuses":"L2 - 09:24;L2 - 09:54#L15 - 09:17;L15 - 10:17"},{"position":{"lat":39.980347,"lon":-0.042788},"name":"Ronda Mijares, nº109","code":"1753","address":"Ronda Mijares, nº109","id":2800,"nextBuses":"L2 - 09:22;L2 - 09:52#L15 - 09:16;L15 - 10:16"},{"position":{"lat":39.985073,"lon":-0.043369},"name":"Ronda Mijares, nº35","code":"1760","address":"Ronda Mijares, nº35","id":2801,"nextBuses":"L2 - 09:26;L2 - 09:56#L15 - 09:18;L15 - 10:17"},{"position":{"lat":39.976126,"lon":-0.07059},"name":"Leroy Merlín (Ciudad Transporte)","code":"1894","address":"Leroy Merlín (Ciudad Transporte)","id":2802,"nextBuses":"L7 - 09:15;L7 - 10:10"},{"position":{"lat":39.993135,"lon":-0.062508},"name":"José Mª Mulet","code":"1766","address":"José Mª Mulet","id":2803,"nextBuses":"L10 - 09:18;L10 - 09:42#L11 - 09:32;L11 - 10:02#L15 - 09:40;L15 - 10:40"},{"position":{"lat":39.979902,"lon":-0.068871},"name":"Ctra. Ribesalbes, nº170","code":"1953","address":"Ctra. Ribesalbes, nº170","id":2804,"nextBuses":"L4 - 09:24;L4 - 09:55"},{"position":{"lat":39.990166,"lon":-0.07225},"name":"Ctra. Alcora (Grupo S.José Obrero)","code":"1906","address":"Ctra. Alcora (Grupo S.José Obrero)","id":2805,"nextBuses":"L6 - 09:19;L6 - 09:39"},{"position":{"lat":39.981348,"lon":-0.012813},"name":"Av. Mar / Autovía puerto","code":"1708","address":"Av. Mar / Autovía puerto","id":2806,"nextBuses":"T1 a Grau (Platja) - 09:41;T1 a Grau (Platja) - 10:11#T1 a UJI - 09:26;T1 a UJI - 09:41#T1 a Grau (Serradal) - 09:26;T1 a Grau (Serradal) - 09:56"},{"position":{"lat":39.980183,"lon":0.01867},"name":"Ferrandis Salvador / Hostaleria","code":"1695","address":"Ferrandis Salvador / Hostaleria","id":2807,"nextBuses":"LT Serradal - 09:29;LT Serradal - 09:57#LT Platja - 09:35;LT Platja - 09:42"},{"position":{"lat":39.981642,"lon":0.019487},"name":"Ferrandis Salvador davant núm. 10","code":"1696","address":"Ferrandis Salvador davant núm. 10","id":2808,"nextBuses":"LT Serradal - 09:29;LT Serradal - 09:56#LT Platja - 09:34;LT Platja - 09:41"},{"position":{"lat":39.983408,"lon":0.020463},"name":"Ferrandis Salvador davant núm. 26","code":"1697","address":"Ferrandis Salvador davant núm. 26","id":2809,"nextBuses":"LT Serradal - 09:28;LT Serradal - 09:55#LT Platja - 09:33;LT Platja - 09:40"},{"position":{"lat":39.985961,"lon":0.02187},"name":"Ferrandis Salvador davant núm. 46","code":"1698","address":"Ferrandis Salvador davant núm. 46","id":2810,"nextBuses":"LT Serradal - 09:27;LT Serradal - 09:54#LT Platja - 09:32;LT Platja - 09:39"},{"position":{"lat":39.991667,"lon":0.024998},"name":"Ferrandis Salvador / Hotel del Golf","code":"1689","address":"Ferrandis Salvador / Hotel del Golf","id":2811,"nextBuses":"LT Serradal - 09:24;LT Serradal - 09:51#LT Platja - 09:29;LT Platja - 09:36"},{"position":{"lat":39.993477,"lon":0.026007},"name":"Av. Castàlia / Rotonda Aeroclub","code":"1690","address":"Av. Castàlia / Rotonda Aeroclub","id":2812,"nextBuses":"LT Platja - 09:29;LT Platja - 09:35"},{"position":{"lat":39.994664,"lon":0.02236},"name":"Camí Mascarat 5","code":"1900","address":"Camí Mascarat 5","id":2813,"nextBuses":"LT Serradal - 09:22;LT Serradal - 09:50"},{"position":{"lat":39.991441,"lon":-0.049359},"name":"Cardenal Costa (Fte.Ford)","code":"1763","address":"Cardenal Costa (Fte.Ford)","id":2814,"nextBuses":"L10 - 09:15;L10 - 09:34#L8 - 10:42#L11 - 09:39#L15 - 09:21;L15 - 10:22"},{"position":{"lat":39.987825,"lon":0.01725},"name":"Camí Serradal / Urb. Portes del Pinar","code":"1896","address":"Camí Serradal / Urb. Portes del Pinar","id":2815,"nextBuses":"LT Serradal - 09:16;LT Serradal - 09:46"},{"position":{"lat":39.995406,"lon":-0.034994},"name":"Calderón de la Barca (Colegio)","code":"1849","address":"Calderón de la Barca (Colegio)","id":2816,"nextBuses":"L8 - 10:22;L8 - 11:42"},{"position":{"lat":39.982964,"lon":0.014946},"name":"Camí Serradal / Bar Daki","code":"1897","address":"Camí Serradal / Bar Daki","id":2817,"nextBuses":"LT Serradal - 09:44"},{"position":{"lat":39.987042,"lon":-0.025309},"name":"Ciudad de la Justicia","code":"1805","address":"Ciudad de la Justicia","id":2818,"nextBuses":"L11 - 09:23;L11 - 09:50"},{"position":{"lat":39.980543,"lon":0.013959},"name":"Camí Serradal / Davant Església de Sant Pau","code":"1898","address":"Camí Serradal / Davant Església de Sant Pau","id":2819,"nextBuses":"LT Serradal - 09:42;LT Serradal - 10:12"},{"position":{"lat":39.977061,"lon":0.012511},"name":"Camí Serradal 10","code":"1899","address":"Camí Serradal 10","id":2820,"nextBuses":"LT Serradal - 09:41;LT Serradal - 10:11"},{"position":{"lat":39.992772,"lon":-0.047873},"name":"Av. Vall d\u0027Uixó (Av.Quevedo) A","code":"1729","address":"Av. Vall d\u0027Uixó (Av.Quevedo) A","id":2821,"nextBuses":"L11 - 09:39"},{"position":{"lat":39.978082,"lon":-0.04511},"name":"Av. Valencia nº27","code":"1970","address":"Av. Valencia nº27","id":2822,"nextBuses":"L1 - 09:19;L1 - 09:36#L2 - 09:21;L2 - 09:51"},{"position":{"lat":39.990044,"lon":0.025667},"name":"Av. Castàlia 31","code":"1682","address":"Av. Castàlia 31","id":2823,"nextBuses":"LT Platja - 09:27;LT Platja - 09:34"},{"position":{"lat":39.988557,"lon":0.025006},"name":"Av. Castàlia / Restaurant La Ola","code":"1683","address":"Av. Castàlia / Restaurant La Ola","id":2824,"nextBuses":"LT Platja - 09:26;LT Platja - 09:33"},{"position":{"lat":39.976637,"lon":-0.047093},"name":"Av. Valencia (Pza. Libertad) A","code":"1739","address":"Av. Valencia (Pza. Libertad) A","id":2825,"nextBuses":"L1 - 09:17;L1 - 09:35#L2 - 09:20;L2 - 09:50#L15 - 10:14"},{"position":{"lat":39.986219,"lon":0.024093},"name":"Av. Castàlia / Residència Pinar","code":"1684","address":"Av. Castàlia / Residència Pinar","id":2826,"nextBuses":"LT Platja - 09:25;LT Platja - 09:32"},{"position":{"lat":39.990041,"lon":-0.041468},"name":"Joaquín Costa 9","code":"1806","address":"Joaquín Costa 9","id":2827,"nextBuses":"L10 - 09:27;L10 - 09:50#L11 - 09:38;L11 - 10:08"},{"position":{"lat":39.981147,"lon":-0.049088},"name":"Jacinto Benavente 9","code":"1895","address":"Jacinto Benavente 9","id":2828,"nextBuses":"L4 - 09:43;L4 - 10:13#L7 - 09:29;L7 - 10:24"},{"position":{"lat":39.980797,"lon":-0.070074},"name":"Grupo S. Lorenzo","code":"1860","address":"Grupo S. Lorenzo","id":2829,"nextBuses":"L10 - 09:29;L10 - 09:54"},{"position":{"lat":39.980882,"lon":-0.029908},"name":"Grupo Grapa","code":"1887","address":"Grupo Grapa","id":2830,"nextBuses":"L4 - 09:29;L4 - 09:59#L7 - 09:39;L7 - 10:34"},{"position":{"lat":39.983845,"lon":-0.035529},"name":"Escultor Viciano (Pza. Borrull)","code":"1719","address":"Escultor Viciano (Pza. Borrull)","id":2831,"nextBuses":"L4 - 09:35;L4 - 10:05#L7 - 09:49;L7 - 10:43"},{"position":{"lat":39.994945,"lon":-0.037017},"name":"Estadio Castalia","code":"1977","address":"Estadio Castalia","id":2832,"nextBuses":"L1 - 09:21;L1 - 09:33"},{"position":{"lat":39.986599,"lon":-0.058046},"name":"Ctra. Alcora (Quadra Salera)","code":"1800","address":"Ctra. Alcora (Quadra Salera)","id":2833,"nextBuses":"L6 - 09:37"},{"position":{"lat":39.986884,"lon":-0.058631},"name":"Ctra. Alcora (Quadra Salera)","code":"1784","address":"Ctra. Alcora (Quadra Salera)","id":2834,"nextBuses":"L6 - 09:16;L6 - 09:36#L10 - 09:36;L10 - 10:01"},{"position":{"lat":39.988219,"lon":-0.066501},"name":"Ctra. Alcora (Quadra Los Cubos)","code":"1787","address":"Ctra. Alcora (Quadra Los Cubos)","id":2835,"nextBuses":"L6 - 09:35;L6 - 09:51#L10 - 09:24;L10 - 09:43"},{"position":{"lat":39.974654,"lon":-0.049871},"name":"Av. Valencia (Grupo Verge Lledó)","code":"1740","address":"Av. Valencia (Grupo Verge Lledó)","id":2836,"nextBuses":"L1 - 09:15;L1 - 09:32#L2 - 09:17;L2 - 09:47#L15 - 10:12;L15 - 11:12"},{"position":{"lat":39.981979,"lon":0.022044},"name":"Av. Castàlia 3","code":"1685","address":"Av. Castàlia 3","id":2837,"nextBuses":"LT Platja - 09:23;LT Platja - 09:30"},{"position":{"lat":39.997697,"lon":-0.043925},"name":"Av. Tombatossals","code":"1855","address":"Av. Tombatossals","id":2838,"nextBuses":"L10 - 09:20;L10 - 09:45"},{"position":{"lat":39.979,"lon":0.022733},"name":"Parc Litoral/Planetari","code":"1686","address":"Parc Litoral/Planetari","id":2839,"nextBuses":"LT Platja - 09:22;LT Platja - 09:28"},{"position":{"lat":39.979773,"lon":0.018928},"name":"Francesc Aragó (Hosteleria)","code":"1687","address":"Francesc Aragó (Hosteleria)","id":2840,"nextBuses":"LT Platja - 09:20;LT Platja - 09:27"},{"position":{"lat":39.977448,"lon":0.017298},"name":"Ferrandis Salvador (davant Cap de Gata)","code":"1688","address":"Ferrandis Salvador (davant Cap de Gata)","id":2841,"nextBuses":"LT Platja - 09:19;LT Platja - 09:26"},{"position":{"lat":39.976703,"lon":-0.068469},"name":"Av. Francia (Ciudad Transporte)","code":"1881","address":"Av. Francia (Ciudad Transporte)","id":2842,"nextBuses":"L7 - 09:14;L7 - 10:09"},{"position":{"lat":39.985508,"lon":-0.048771},"name":"Av. Dr. Clará (Av.Vila-Real)","code":"1831","address":"Av. Dr. Clará (Av.Vila-Real)","id":2843,"nextBuses":"L6 - 09:33#L8 - 10:39;L8 - 11:59"},{"position":{"lat":39.985031,"lon":-0.045993},"name":"Av. Dr. Clará (Hospital Provincial)","code":"1773","address":"Av. Dr. Clará (Hospital Provincial)","id":2844,"nextBuses":"L6 - 09:18;L6 - 09:43"},{"position":{"lat":40.00171,"lon":-0.046902},"name":"Av. Diputación (Ambulatorio)","code":"1847","address":"Av. Diputación (Ambulatorio)","id":2845,"nextBuses":"L1 - 09:26#L8 - 10:09;L8 - 11:29"},{"position":{"lat":39.984853,"lon":-0.027769},"name":"Columbretes, nº2","code":"1804","address":"Columbretes, nº2","id":2846,"nextBuses":"L11 - 09:21;L11 - 09:48"},{"position":{"lat":39.976902,"lon":-0.036989},"name":"Av.Chatellerault (fte.Farmacia)","code":"1797","address":"Av.Chatellerault (fte.Farmacia)","id":2847,"nextBuses":"Empty"},{"position":{"lat":39.998786,"lon":-0.039298},"name":"Av. Benicassim (Políg. Estadio A)","code":"1857","address":"Av. Benicassim (Políg. Estadio A)","id":2848,"nextBuses":"L1 - 09:23;L1 - 09:35#L2 - 09:35;L2 - 10:05#L10 - 09:32;L10 - 09:56"},{"position":{"lat":39.991629,"lon":-0.040521},"name":"Ronda Vinatea","code":"1808","address":"Ronda Vinatea","id":2849,"nextBuses":"L11 - 09:35;L11 - 10:03"},{"position":{"lat":39.991829,"lon":-0.045525},"name":"Av.Quevedo, nº4","code":"1810","address":"Av.Quevedo, nº4","id":2850,"nextBuses":"L11 - 09:36;L11 - 10:05"},{"position":{"lat":39.990985,"lon":-0.044191},"name":"Av. Barcelona, nº24","code":"1861","address":"Av. Barcelona, nº24","id":2851,"nextBuses":"L10 - 09:26;L10 - 09:49"},{"position":{"lat":39.988889,"lon":-0.046085},"name":"Av. Barcelona (P.Ribalta)","code":"1862","address":"Av. Barcelona (P.Ribalta)","id":2852,"nextBuses":"L10 - 09:24;L10 - 09:48"},{"position":{"lat":40.002143,"lon":-0.047282},"name":"Esq. Quadra Segona-Avenida Diputación","code":"1842","address":"Esq. Quadra Segona-Avenida Diputación","id":2853,"nextBuses":"L8 - 10:09;L8 - 11:29"},{"position":{"lat":40.002314,"lon":-0.047649},"name":"Esq. Quadra Segona-Cami Penyeta","code":"1844","address":"Esq. Quadra Segona-Cami Penyeta","id":2854,"nextBuses":"L8 - 10:51"},{"position":{"lat":39.985658,"lon":-0.051845},"name":"Ctra. Alcora (C/Useras)","code":"1792","address":"Ctra. Alcora (C/Useras)","id":2855,"nextBuses":"L6 - 09:17;L6 - 09:42"},{"position":{"lat":39.985298,"lon":-0.046919},"name":"Av. Dr. Clará, nº36","code":"1832","address":"Av. Dr. Clará, nº36","id":2856,"nextBuses":"L6 - 09:31;L6 - 09:52#L8 - 10:38;L8 - 11:58"},{"position":{"lat":39.983007,"lon":-0.031268},"name":"Hermanos Bou nº26","code":"1814","address":"Hermanos Bou nº26","id":2857,"nextBuses":"L11 - 09:19;L11 - 09:46"},{"position":{"lat":39.988374,"lon":-0.066577},"name":"Ctra. Alcora (Quadra Los Cubos)","code":"1789","address":"Ctra. Alcora (Quadra Los Cubos)","id":2858,"nextBuses":"L6 - 09:17;L6 - 09:37#L10 - 09:38"},{"position":{"lat":39.985267,"lon":-0.031955},"name":"Av. Del Mar 23","code":"1878","address":"Av. Del Mar 23","id":2859,"nextBuses":"L4 - 09:32;L4 - 10:02#L7 - 09:40;L7 - 10:35"},{"position":{"lat":39.985589,"lon":-0.033604},"name":"Av. Del Mar 3","code":"1877","address":"Av. Del Mar 3","id":2860,"nextBuses":"L4 - 09:33;L4 - 10:03#L7 - 09:47;L7 - 10:42"},{"position":{"lat":39.985781,"lon":-0.051734},"name":"Av. Alcora (C/Useras)","code":"1793","address":"Av. Alcora (C/Useras)","id":2861,"nextBuses":"L6 - 09:34#L8 - 10:39;L8 - 11:59"},{"position":{"lat":40.000164,"lon":-0.045985},"name":"Av. Diputación (Grupo S.Agustín)","code":"1846","address":"Av. Diputación (Grupo S.Agustín)","id":2862,"nextBuses":"L1 - 09:14;L1 - 09:29#L8 - 10:10;L8 - 11:30"},{"position":{"lat":39.984661,"lon":-0.029042},"name":"Av. Del Mar 43","code":"1879","address":"Av. Del Mar 43","id":2863,"nextBuses":"L4 - 09:31;L4 - 10:01#L7 - 09:39;L7 - 10:34"},{"position":{"lat":40.002171,"lon":-0.042045},"name":"Av. Benicàssim (Hosp.Gral.)","code":"1726","address":"Av. Benicàssim (Hosp.Gral.)","id":2864,"nextBuses":"L1 - 09:25;L1 - 09:37#L10 - 09:33;L10 - 09:57#L8 - 10:49"},{"position":{"lat":39.996599,"lon":-0.037601},"name":"Av. Benicassim 4A","code":"1866","address":"Av. Benicassim 4A","id":2865,"nextBuses":"L1 - 09:22;L1 - 09:34#L2 - 09:35;L2 - 10:05#L10 - 09:31;L10 - 09:55"},{"position":{"lat":39.987566,"lon":-0.047547},"name":"Av. Barcelona (C.C.)","code":"1744","address":"Av. Barcelona (C.C.)","id":2866,"nextBuses":"L15 - 09:45;L15 - 10:45"},{"position":{"lat":39.976827,"lon":-0.042155},"name":"Av. Casalduch, nº80","code":"1821","address":"Av. Casalduch, nº80","id":2867,"nextBuses":"L8 - 10:30;L8 - 11:50"},{"position":{"lat":39.973961,"lon":-0.047056},"name":"Av. Casalduch (IES M.Salvador)","code":"1822","address":"Av. Casalduch (IES M.Salvador)","id":2868,"nextBuses":"L8 - 10:31;L8 - 11:51"},{"position":{"lat":39.989107,"lon":-0.034177},"name":"Av. Capuchinos, nº3","code":"1824","address":"Av. Capuchinos, nº3","id":2869,"nextBuses":"L8 - 10:24;L8 - 11:44"},{"position":{"lat":39.989559,"lon":-0.0339},"name":"Av. Capuchinos 14","code":"1973","address":"Av. Capuchinos 14","id":2870,"nextBuses":"L1 - 09:17;L1 - 09:30"},{"position":{"lat":39.992253,"lon":-0.033549},"name":"Av. Capuchinos (Pza.Primer Molí)","code":"1825","address":"Av. Capuchinos (Pza.Primer Molí)","id":2871,"nextBuses":"L8 - 10:23;L8 - 11:43"},{"position":{"lat":40.009199,"lon":-0.052354},"name":"Puente Penyeta (A) bis","code":"1819","address":"Puente Penyeta (A) bis","id":2872,"nextBuses":"L8 - 10:07;L8 - 11:27"},{"position":{"lat":39.994387,"lon":-0.068533},"name":"U.J.I. (bis)","code":"1853","address":"U.J.I. (bis)","id":2873,"nextBuses":"L10 - 09:17;L10 - 09:41"},{"position":{"lat":39.986423,"lon":-0.040179},"name":"Av. Rei en Jaume","code":"1769","address":"Av. Rei en Jaume","id":2874,"nextBuses":"T1 a UJI - 09:19;T1 a UJI - 09:40"},{"position":{"lat":39.984431,"lon":-0.038758},"name":"Puerta del Sol","code":"1770","address":"Puerta del Sol","id":2875,"nextBuses":"T1 a UJI - 09:17;T1 a UJI - 09:38"},{"position":{"lat":39.985682,"lon":-0.033945},"name":"Av. Mar / Antiguo Asilo","code":"1772","address":"Av. Mar / Antiguo Asilo","id":2876,"nextBuses":"T1 a UJI - 09:34"},{"position":{"lat":39.983821,"lon":-0.035638},"name":"Plaza Borrull","code":"1771","address":"Plaza Borrull","id":2877,"nextBuses":"T1 a UJI - 09:15;T1 a UJI - 09:36"},{"position":{"lat":40.012757,"lon":-0.049542},"name":"Cno. Borriol Costa B","code":"1828","address":"Cno. Borriol Costa B","id":2878,"nextBuses":"L8 - 10:56"},{"position":{"lat":40.01147,"lon":-0.052057},"name":"Cruce Penyeta R.","code":"1829","address":"Cruce Penyeta R.","id":2879,"nextBuses":"L8 - 10:55"},{"position":{"lat":39.975234,"lon":0.015036},"name":"Grau","code":"1700","address":"Grau","id":2880,"nextBuses":"LT Serradal - 09:35;LT Serradal - 10:05#T1 a UJI - 09:20;T1 a UJI - 09:35#LT Platja - 09:20;LT Platja - 09:50"},{"position":{"lat":40.012823,"lon":-0.049644},"name":"Cno. Borriol Costa","code":"1837","address":"Cno. Borriol Costa","id":2881,"nextBuses":"L8 - 10:02;L8 - 11:22"},{"position":{"lat":40.011554,"lon":-0.052171},"name":"Cruce Penyeta Roja","code":"1838","address":"Cruce Penyeta Roja","id":2882,"nextBuses":"L8 - 10:02;L8 - 11:22"},{"position":{"lat":39.977532,"lon":0.017106},"name":"Ferrandis Salvador davant Cap de Gata","code":"1694","address":"Ferrandis Salvador davant Cap de Gata","id":2883,"nextBuses":"LT Serradal - 09:31;LT Serradal - 09:58#LT Platja - 09:36;LT Platja - 09:43"},{"position":{"lat":39.980846,"lon":-0.064534},"name":"Centro Comercial (Q.Salera)","code":"1724","address":"Centro Comercial (Q.Salera)","id":2884,"nextBuses":"L7 - 09:18;L7 - 10:12#L10 - 09:33;L10 - 09:58"},{"position":{"lat":39.979187,"lon":-0.060916},"name":"C.C. (Antigua N-340)","code":"1725","address":"C.C. (Antigua N-340)","id":2885,"nextBuses":"L7 - 09:19;L7 - 10:14"},{"position":{"lat":39.98792,"lon":0.022949},"name":"Ferrandis Salvador davant núm. 50","code":"1699","address":"Ferrandis Salvador davant núm. 50","id":2886,"nextBuses":"LT Serradal - 09:26;LT Serradal - 09:53#LT Platja - 09:31;LT Platja - 09:38"},{"position":{"lat":39.989651,"lon":-0.045923},"name":"Cardenal Costa, nº8","code":"1776","address":"Cardenal Costa, nº8","id":2887,"nextBuses":"L10 - 09:32"},{"position":{"lat":39.990456,"lon":-0.047493},"name":"Cardenal Costa, nº28","code":"1762","address":"Cardenal Costa, nº28","id":2888,"nextBuses":"L10 - 09:32#L15 - 09:20;L15 - 10:20"},{"position":{"lat":39.990937,"lon":0.018703},"name":"Camí Serradal 300","code":"1901","address":"Camí Serradal 300","id":2889,"nextBuses":"LT Serradal - 09:17;LT Serradal - 09:47"},{"position":{"lat":39.994318,"lon":-0.033659},"name":"Cno. de La Plana (Colegio Isabel Ferrer)","code":"1981","address":"Cno. de La Plana (Colegio Isabel Ferrer)","id":2890,"nextBuses":"L1 - 09:20;L1 - 09:33"},{"position":{"lat":39.979152,"lon":-0.043987},"name":"Av. Valencia nº28","code":"1736","address":"Av. Valencia nº28","id":2891,"nextBuses":"L1 - 09:19;L1 - 09:31#L2 - 09:29;L2 - 09:58#L15 - 09:52;L15 - 10:52"},{"position":{"lat":39.974742,"lon":-0.050113},"name":"Av. Valencia nº110","code":"1737","address":"Av. Valencia nº110","id":2892,"nextBuses":"L1 - 09:22;L1 - 09:33#L2 - 09:31;L2 - 10:00#L15 - 09:54;L15 - 10:54"},{"position":{"lat":39.976823,"lon":-0.047295},"name":"Av. Valencia (Pza. Libertad) B","code":"1738","address":"Av. Valencia (Pza. Libertad) B","id":2893,"nextBuses":"L1 - 09:20;L1 - 09:32#L2 - 09:30;L2 - 09:59#L15 - 09:53;L15 - 10:54"},{"position":{"lat":39.991487,"lon":-0.04657},"name":"Av. Espronceda","code":"1813","address":"Av. Espronceda","id":2894,"nextBuses":"L11 - 09:36;L11 - 10:06"},{"position":{"lat":39.983136,"lon":-0.037398},"name":"Asensi 6","code":"1876","address":"Asensi 6","id":2895,"nextBuses":"L4 - 09:15;L4 - 09:47#L7 - 09:30;L7 - 10:25"},{"position":{"lat":39.999615,"lon":-0.045306},"name":"Av. Castell Vell","code":"1820","address":"Av. Castell Vell","id":2896,"nextBuses":"L1 - 09:15;L1 - 09:29#L2 - 09:37;L2 - 10:07#L8 - 10:10;L8 - 11:30"},{"position":{"lat":39.979697,"lon":-0.038507},"name":"Av. Casalduch (Colegio Carmelitas)","code":"1823","address":"Av. Casalduch (Colegio Carmelitas)","id":2897,"nextBuses":"L1 - 09:15;L1 - 09:29#L8 - 10:29;L8 - 11:49"},{"position":{"lat":39.991793,"lon":-0.033534},"name":"Av. Capuchinos nº36","code":"1972","address":"Av. Capuchinos nº36","id":2898,"nextBuses":"L1 - 09:18;L1 - 09:31"},{"position":{"lat":39.979095,"lon":-0.043146},"name":"Av.Burriana 4","code":"1788","address":"Av.Burriana 4","id":2899,"nextBuses":"L1 - 09:19;L1 - 09:38#L4 - 09:44#L7 - 09:25;L7 - 10:19"},{"position":{"lat":39.998334,"lon":-0.039236},"name":"Av. Benicassim (Políg. Estadio B)","code":"1826","address":"Av. Benicassim (Políg. Estadio B)","id":2900,"nextBuses":"L1 - 09:19;L1 - 09:32#L2 - 09:42#L8 - 10:21;L8 - 11:41"},{"position":{"lat":39.98215,"lon":-0.049923},"name":"Gran Vía T. Blanco, nº44","code":"1889","address":"Gran Vía T. Blanco, nº44","id":2901,"nextBuses":"L4 - 09:15;L4 - 09:45#L7 - 09:52;L7 - 10:47"},{"position":{"lat":39.977148,"lon":0.007967},"name":"Av. Mar / Instituto","code":"1705","address":"Av. Mar / Instituto","id":2902,"nextBuses":"T1 a Grau (Platja) - 09:47;T1 a Grau (Platja) - 09:47#T1 a UJI - 09:21;T1 a UJI - 09:36#T1 a Grau (Serradal) - 09:32;T1 a Grau (Serradal) - 10:02"},{"position":{"lat":39.978642,"lon":5.71E-4},"name":"Av. Mar / Patos","code":"1706","address":"Av. Mar / Patos","id":2903,"nextBuses":"T1 a Grau (Platja) - 09:45;T1 a Grau (Platja) - 09:45#T1 a UJI - 09:23;T1 a UJI - 09:38#T1 a Grau (Serradal) - 09:30;T1 a Grau (Serradal) - 10:00"},{"position":{"lat":39.980191,"lon":-0.007034},"name":"Av. Mar / Donació","code":"1707","address":"Av. Mar / Donació","id":2904,"nextBuses":"T1 a Grau (Platja) - 09:43;T1 a Grau (Platja) - 09:43#T1 a UJI - 09:25;T1 a UJI - 09:40#T1 a Grau (Serradal) - 09:27;T1 a Grau (Serradal) - 09:58"},{"position":{"lat":40.009463,"lon":-0.052448},"name":"Puente Penyeta (A)","code":"1839","address":"Puente Penyeta (A)","id":2905,"nextBuses":"L8 - 10:53"}]