{"type":"FeatureCollection","features":[{"type":"Feature","id":"bus_stop17.fid-730f3da1_14a2e98e256_38c1","geometry":{"type":"Point","coordinates":[-0.042606,39.987818]},"geometry_name":"location","properties":{"id":1629,"address":"Paseo Ribalta (Farola)","code":"799","name":"Paseo Ribalta (Farola)","services":"Servicios no disponibles","transit_service_type_id":1,"nextbuses":"L10 - 17:14#L13 - 16:59;L13 - 17:00","help":"element.bus.line.L10;element.bus.help.line.L10#element.bus.line.L13;element.bus.help.line.L13"}},{"type":"Feature","id":"bus_stop17.fid-730f3da1_14a2e98e256_38c2","geometry":{"type":"Point","coordinates":[-0.042489,39.985654]},"geometry_name":"location","properties":{"id":1630,"address":"San Vicente nº54","code":"800","name":"San Vicente nº54","services":"Servicios no disponibles","transit_service_type_id":1,"nextbuses":"L4 - 16:40;L4 - 17:11#L6 - 16:55;L6 - 17:25#L7 - 16:53;L7 - 17:21#L9 - 16:45;L9 - 17:00","help":"element.bus.line.L4;element.bus.help.line.L4#element.bus.line.L6;element.bus.help.line.L6#element.bus.line.L7;element.bus.help.line.L7#element.bus.line.L9;element.bus.help.line.L9"}},{"type":"Feature","id":"bus_stop17.fid-730f3da1_14a2e98e256_38c3","geometry":{"type":"Point","coordinates":[-0.043191,39.982672]},"geometry_name":"location","properties":{"id":1631,"address":"Ronda Mijares, nº87","code":"801","name":"Ronda Mijares, nº87","services":"Servicios no disponibles","transit_service_type_id":1,"nextbuses":"L2 - 16:55;L2 - 17:25#L12 - 16:40;L12 - 17:40#L15 - 16:45;L15 - 17:20","help":"element.bus.line.L2;element.bus.help.line.L2#element.bus.line.L12;element.bus.help.line.L12#element.bus.line.L15;element.bus.help.line.L15"}},{"type":"Feature","id":"bus_stop17.fid-730f3da1_14a2e98e256_38c4","geometry":{"type":"Point","coordinates":[-0.041783,39.980564]},"geometry_name":"location","properties":{"id":1632,"address":"Pza. País Valenciá","code":"802","name":"Pza. País Valenciá","services":"Servicios no disponibles","transit_service_type_id":1,"nextbuses":"L1 - 16:41;L1 - 16:59#L12 - 16:37;L12 - 17:37","help":"element.bus.line.L1;element.bus.help.line.L1#element.bus.line.L12;element.bus.help.line.L12"}},{"type":"Feature","id":"bus_stop17.fid-730f3da1_14a2e98e256_38c5","geometry":{"type":"Point","coordinates":[-0.034112,39.987907]},"geometry_name":"location","properties":{"id":1633,"address":"Pza. Mª Agustina (Gobernador)","code":"803","name":"Pza. Mª Agustina (Gobernador)","services":"Servicios no disponibles","transit_service_type_id":1,"nextbuses":"L1 - 16:36;L1 - 16:54#L11 - 16:44;L11 - 17:12#L9 - 16:38;L9 - 16:53","help":"element.bus.line.L1;element.bus.help.line.L1#element.bus.line.L11;element.bus.help.line.L11#element.bus.line.L9;element.bus.help.line.L9"}},{"type":"Feature","id":"bus_stop17.fid-730f3da1_14a2e98e256_38c6","geometry":{"type":"Point","coordinates":[-0.042641,39.987819]},"geometry_name":"location","properties":{"id":1634,"address":"Paseo Ribalta (La Farola)","code":"804","name":"Paseo Ribalta (La Farola)","services":"Servicios no disponibles","transit_service_type_id":1,"nextbuses":"Empty","help":null}},{"type":"Feature","id":"bus_stop17.fid-730f3da1_14a2e98e256_38c7","geometry":{"type":"Point","coordinates":[-0.035529,39.983845]},"geometry_name":"location","properties":{"id":1635,"address":"Escultor Viciano (Pza. Borrull)","code":"805","name":"Escultor Viciano (Pza. Borrull)","services":"Servicios no disponibles","transit_service_type_id":1,"nextbuses":"L4 - 17:05#L7 - 16:47;L7 - 17:16#L9 - 16:40;L9 - 16:55","help":"element.bus.line.L4;element.bus.help.line.L4#element.bus.line.L7;element.bus.help.line.L7#element.bus.line.L9;element.bus.help.line.L9"}},{"type":"Feature","id":"bus_stop17.fid-730f3da1_14a2e98e256_38c8","geometry":{"type":"Point","coordinates":[-0.036077,39.981743]},"geometry_name":"location","properties":{"id":1636,"address":"Pza. Fadrell ","code":"806","name":"Pza. Fadrell ","services":"Servicios no disponibles","transit_service_type_id":1,"nextbuses":"L1 - 16:38;L1 - 16:56#L4 - 16:51;L4 - 17:21#L8 - 17:49;L8 - 19:09","help":"element.bus.line.L1;element.bus.help.line.L1#element.bus.line.L4;element.bus.help.line.L4#element.bus.line.L8;element.bus.help.line.L8"}},{"type":"Feature","id":"bus_stop17.fid-730f3da1_14a2e98e256_38c9","geometry":{"type":"Point","coordinates":[-0.037913,39.984222]},"geometry_name":"location","properties":{"id":1637,"address":"Gasset 5","code":"807","name":"Gasset 5","services":"Servicios no disponibles","transit_service_type_id":1,"nextbuses":"L4 - 16:37;L4 - 17:06#L7 - 16:49;L7 - 17:17#L9 - 16:42;L9 - 16:57","help":"element.bus.line.L4;element.bus.help.line.L4#element.bus.line.L7;element.bus.help.line.L7#element.bus.line.L9;element.bus.help.line.L9"}},{"type":"Feature","id":"bus_stop17.fid-730f3da1_14a2e98e256_38ca","geometry":{"type":"Point","coordinates":[-0.037811,39.988768]},"geometry_name":"location","properties":{"id":1638,"address":"Pza. Clavé nº10","code":"808","name":"Pza. Clavé nº10","services":"Servicios no disponibles","transit_service_type_id":1,"nextbuses":"L11 - 16:41;L11 - 17:10#L9 - 16:37;L9 - 16:52","help":"element.bus.line.L11;element.bus.help.line.L11#element.bus.line.L9;element.bus.help.line.L9"}},{"type":"Feature","id":"bus_stop17.fid-730f3da1_14a2e98e256_38cb","geometry":{"type":"Point","coordinates":[-0.043369,39.985073]},"geometry_name":"location","properties":{"id":1639,"address":"Ronda Mijares, nº35","code":"810","name":"Ronda Mijares, nº35","services":"Servicios no disponibles","transit_service_type_id":1,"nextbuses":"L2 - 16:57;L2 - 17:27#L12 - 16:41;L12 - 17:41#L13 - 16:46;L13 - 18:16#L15 - 16:46;L15 - 17:21","help":"element.bus.line.L2;element.bus.help.line.L2#element.bus.line.L12;element.bus.help.line.L12#element.bus.line.L13;element.bus.help.line.L13#element.bus.line.L15;element.bus.help.line.L15"}},{"type":"Feature","id":"bus_stop17.fid-730f3da1_14a2e98e256_38cc","geometry":{"type":"Point","coordinates":[-0.041924,39.987891]},"geometry_name":"location","properties":{"id":1640,"address":"Ronda Magdalena nº10","code":"811","name":"Ronda Magdalena nº10","services":"Servicios no disponibles","transit_service_type_id":1,"nextbuses":"L2 - 16:59;L2 - 17:29","help":"element.bus.line.L2;element.bus.help.line.L2"}},{"type":"Feature","id":"bus_stop17.fid-730f3da1_14a2e98e256_38cd","geometry":{"type":"Point","coordinates":[-0.037844,39.984211]},"geometry_name":"location","properties":{"id":1641,"address":"Gasset, nº5","code":"809","name":"Gasset, nº5","services":"Servicios no disponibles","transit_service_type_id":1,"nextbuses":"Empty","help":null}},{"type":"Feature","id":"bus_stop17.fid-730f3da1_14a2e98e256_38ce","geometry":{"type":"Point","coordinates":[-0.02341,39.986282]},"geometry_name":"location","properties":{"id":1642,"address":"Recinto Ferial (Mercado)","code":"812","name":"Recinto Ferial (Mercado)","services":"Servicios no disponibles","transit_service_type_id":1,"nextbuses":"Empty","help":null}},{"type":"Feature","id":"bus_stop17.fid-730f3da1_14a2e98e256_38cf","geometry":{"type":"Point","coordinates":[-0.033604,39.985589]},"geometry_name":"location","properties":{"id":1643,"address":"Av. Del Mar 3","code":"813","name":"Av. Del Mar 3","services":"Servicios no disponibles","transit_service_type_id":1,"nextbuses":"L4 - 17:03;L4 - 17:33#L7 - 16:46;L7 - 17:15","help":"element.bus.line.L4;element.bus.help.line.L4#element.bus.line.L7;element.bus.help.line.L7"}},{"type":"Feature","id":"bus_stop17.fid-730f3da1_14a2e98e256_38d0","geometry":{"type":"Point","coordinates":[-0.031955,39.985267]},"geometry_name":"location","properties":{"id":1644,"address":"Av. Del Mar 23","code":"814","name":"Av. Del Mar 23","services":"Servicios no disponibles","transit_service_type_id":1,"nextbuses":"L4 - 17:03;L4 - 17:33#L7 - 16:45;L7 - 17:14","help":"element.bus.line.L4;element.bus.help.line.L4#element.bus.line.L7;element.bus.help.line.L7"}},{"type":"Feature","id":"bus_stop17.fid-730f3da1_14a2e98e256_38d1","geometry":{"type":"Point","coordinates":[-0.029042,39.984661]},"geometry_name":"location","properties":{"id":1645,"address":"Av. Del Mar 43","code":"815","name":"Av. Del Mar 43","services":"Servicios no disponibles","transit_service_type_id":1,"nextbuses":"L4 - 17:02;L4 - 17:32#L7 - 16:44;L7 - 17:13","help":"element.bus.line.L4;element.bus.help.line.L4#element.bus.line.L7;element.bus.help.line.L7"}},{"type":"Feature","id":"bus_stop17.fid-730f3da1_14a2e98e256_38d2","geometry":{"type":"Point","coordinates":[-0.042297,39.987387]},"geometry_name":"location","properties":{"id":1646,"address":"Rda/Mijares-C/Zaragoza","code":"816","name":"Rda/Mijares-C/Zaragoza","services":"Servicios no disponibles","transit_service_type_id":1,"nextbuses":"Empty","help":null}},{"type":"Feature","id":"bus_stop17.fid-730f3da1_14a2e98e256_38d3","geometry":{"type":"Point","coordinates":[-0.040748,39.989365]},"geometry_name":"location","properties":{"id":1647,"address":"Ronda Magdalena,  nº38","code":"817","name":"Ronda Magdalena,  nº38","services":"Servicios no disponibles","transit_service_type_id":1,"nextbuses":"L2 - 17:00;L2 - 17:30","help":"element.bus.line.L2;element.bus.help.line.L2"}},{"type":"Feature","id":"bus_stop17.fid-730f3da1_14a2e98e256_38d4","geometry":{"type":"Point","coordinates":[-0.028884,39.98318]},"geometry_name":"location","properties":{"id":1648,"address":"Pablo Iglesias 10","code":"818","name":"Pablo Iglesias 10","services":"Servicios no disponibles","transit_service_type_id":1,"nextbuses":"L4 - 17:01;L4 - 17:31#L7 - 16:44;L7 - 17:12","help":"element.bus.line.L4;element.bus.help.line.L4#element.bus.line.L7;element.bus.help.line.L7"}},{"type":"Feature","id":"bus_stop17.fid-730f3da1_14a2e98e256_38d5","geometry":{"type":"Point","coordinates":[-0.043358,39.985054]},"geometry_name":"location","properties":{"id":1649,"address":"Ronda Mijares nº35","code":"819","name":"Ronda Mijares nº35","services":"Servicios no disponibles","transit_service_type_id":1,"nextbuses":"Empty","help":null}}],"crs":{"type":"EPSG","properties":{"code":"4326"}}}