{"type":"FeatureCollection","features":[{"type":"Feature","id":"bus_stop16.fid-730f3da1_14a2e98e256_391b","geometry":{"type":"Point","coordinates":[-0.044345,39.999366]},"geometry_name":"location","properties":{"id":1662,"address":"Quadra Borriolenc (Tombatossals)","code":"832","name":"Quadra Borriolenc (Tombatossals)","services":"Servicios no disponibles","transit_service_type_id":1,"nextbuses":"L8 - 16:58;L8 - 18:17","help":"element.bus.line.L8;element.bus.help.line.L8"}},{"type":"Feature","id":"bus_stop16.fid-730f3da1_14a2e98e256_391c","geometry":{"type":"Point","coordinates":[-0.064534,39.980846]},"geometry_name":"location","properties":{"id":1663,"address":"Centro Comercial (Q.Salera)","code":"833","name":"Centro Comercial (Q.Salera)","services":"Servicios no disponibles","transit_service_type_id":1,"nextbuses":"L10 - 17:03;L10 - 17:43#L4 - 17:05#L7 - 16:48;L7 - 17:18","help":"element.bus.line.L10;element.bus.help.line.L10#element.bus.line.L4;element.bus.help.line.L4#element.bus.line.L7;element.bus.help.line.L7"}},{"type":"Feature","id":"bus_stop16.fid-730f3da1_14a2e98e256_391d","geometry":{"type":"Point","coordinates":[-0.060916,39.979187]},"geometry_name":"location","properties":{"id":1664,"address":"C.C. (Antigua N-340)","code":"834","name":"C.C. (Antigua N-340)","services":"Servicios no disponibles","transit_service_type_id":1,"nextbuses":"L7 - 16:50;L7 - 17:20","help":"element.bus.line.L7;element.bus.help.line.L7"}},{"type":"Feature","id":"bus_stop16.fid-730f3da1_14a2e98e256_391e","geometry":{"type":"Point","coordinates":[-0.042045,40.002171]},"geometry_name":"location","properties":{"id":1665,"address":"Av. Benicàssim (Hosp.Gral.)","code":"835","name":"Av. Benicàssim (Hosp.Gral.)","services":"Servicios no disponibles","transit_service_type_id":1,"nextbuses":"L1 - 16:41;L1 - 16:54#L10 - 16:47;L10 - 17:26#L8 - 16:59;L8 - 18:19","help":"element.bus.line.L1;element.bus.help.line.L1#element.bus.line.L10;element.bus.help.line.L10#element.bus.line.L8;element.bus.help.line.L8"}},{"type":"Feature","id":"bus_stop16.fid-730f3da1_14a2e98e256_391f","geometry":{"type":"Point","coordinates":[-0.064571,39.980802]},"geometry_name":"location","properties":{"id":1666,"address":"Centro Comercial (Q.Salera)","code":"836","name":"Centro Comercial (Q.Salera)","services":"Servicios no disponibles","transit_service_type_id":1,"nextbuses":"Empty","help":null}},{"type":"Feature","id":"bus_stop16.fid-730f3da1_14a2e98e256_3920","geometry":{"type":"Point","coordinates":[-0.047691,39.992641]},"geometry_name":"location","properties":{"id":1667,"address":"Av. Vall d'Uixó (Av.Quevedo) B","code":"837","name":"Av. Vall d'Uixó (Av.Quevedo) B","services":"Servicios no disponibles","transit_service_type_id":1,"nextbuses":"Empty","help":null}},{"type":"Feature","id":"bus_stop16.fid-730f3da1_14a2e98e256_3921","geometry":{"type":"Point","coordinates":[-0.047873,39.992772]},"geometry_name":"location","properties":{"id":1668,"address":"Av. Vall d'Uixó (Av.Quevedo) A","code":"838","name":"Av. Vall d'Uixó (Av.Quevedo) A","services":"Servicios no disponibles","transit_service_type_id":1,"nextbuses":"L11 - 16:42;L11 - 17:11","help":"element.bus.line.L11;element.bus.help.line.L11"}},{"type":"Feature","id":"bus_stop16.fid-730f3da1_14a2e98e256_3922","geometry":{"type":"Point","coordinates":[-0.045379,40.000095]},"geometry_name":"location","properties":{"id":1669,"address":"Av. Castell Vell (Av. Diput.)","code":"839","name":"Av. Castell Vell (Av. Diput.)","services":"Servicios no disponibles","transit_service_type_id":1,"nextbuses":"Empty","help":null}},{"type":"Feature","id":"bus_stop16.fid-730f3da1_14a2e98e256_3923","geometry":{"type":"Point","coordinates":[-0.052219,39.987847]},"geometry_name":"location","properties":{"id":1670,"address":"Pintor Oliet (Estación Intermodal)","code":"840","name":"Pintor Oliet (Estación Intermodal)","services":"Servicios no disponibles","transit_service_type_id":1,"nextbuses":"Empty","help":null}},{"type":"Feature","id":"bus_stop16.fid-730f3da1_14a2e98e256_3924","geometry":{"type":"Point","coordinates":[-0.052048,39.987735]},"geometry_name":"location","properties":{"id":1671,"address":"Pintor Oliet (FFCC)","code":"841","name":"Pintor Oliet (FFCC)","services":"Servicios no disponibles","transit_service_type_id":1,"nextbuses":"L8 - 16:47;L8 - 18:07","help":"element.bus.line.L8;element.bus.help.line.L8"}}],"crs":{"type":"EPSG","properties":{"code":"4326"}}}