{"type":"FeatureCollection","features":[{"type":"Feature","id":"bus_stop3.fid-730f3da1_14a2e98e256_3a5f","geometry":{"type":"Point","coordinates":[-0.037811,39.988768]},"geometry_name":"location","properties":{"id":1638,"address":"Pza. Clavé nº10","code":"808","name":"Pza. Clavé nº10","services":"Servicios no disponibles","transit_service_type_id":1,"nextbuses":"L11 - 16:41;L11 - 17:10#L9 - 16:37;L9 - 16:52","help":"element.bus.line.L11;element.bus.help.line.L11#element.bus.line.L9;element.bus.help.line.L9"}},{"type":"Feature","id":"bus_stop3.fid-730f3da1_14a2e98e256_3a60","geometry":{"type":"Point","coordinates":[-0.047691,39.992641]},"geometry_name":"location","properties":{"id":1667,"address":"Av. Vall d'Uixó (Av.Quevedo) B","code":"837","name":"Av. Vall d'Uixó (Av.Quevedo) B","services":"Servicios no disponibles","transit_service_type_id":1,"nextbuses":"Empty","help":null}},{"type":"Feature","id":"bus_stop3.fid-730f3da1_14a2e98e256_3a61","geometry":{"type":"Point","coordinates":[-0.047873,39.992772]},"geometry_name":"location","properties":{"id":1668,"address":"Av. Vall d'Uixó (Av.Quevedo) A","code":"838","name":"Av. Vall d'Uixó (Av.Quevedo) A","services":"Servicios no disponibles","transit_service_type_id":1,"nextbuses":"L11 - 16:42;L11 - 17:11","help":"element.bus.line.L11;element.bus.help.line.L11"}},{"type":"Feature","id":"bus_stop3.fid-730f3da1_14a2e98e256_3a62","geometry":{"type":"Point","coordinates":[-0.054195,39.995815]},"geometry_name":"location","properties":{"id":1692,"address":"Cementerio (Quadra Borriolenc)","code":"862","name":"Cementerio (Quadra Borriolenc)","services":"Servicios no disponibles","transit_service_type_id":1,"nextbuses":"L13 - 18:06#L8 - 16:55;L8 - 18:15","help":"element.bus.line.L13;element.bus.help.line.L13#element.bus.line.L8;element.bus.help.line.L8"}},{"type":"Feature","id":"bus_stop3.fid-730f3da1_14a2e98e256_3a63","geometry":{"type":"Point","coordinates":[-0.045985,40.000164]},"geometry_name":"location","properties":{"id":1702,"address":"Av. Diputación (Grupo S.Agustín)","code":"872","name":"Av. Diputación (Grupo S.Agustín)","services":"Servicios no disponibles","transit_service_type_id":1,"nextbuses":"L1 - 16:45;L1 - 16:58#L8 - 17:28;L8 - 18:48","help":"element.bus.line.L1;element.bus.help.line.L1#element.bus.line.L8;element.bus.help.line.L8"}},{"type":"Feature","id":"bus_stop3.fid-730f3da1_14a2e98e256_3a64","geometry":{"type":"Point","coordinates":[-0.046902,40.00171]},"geometry_name":"location","properties":{"id":1704,"address":"Av. Diputación (Ambulatorio)","code":"874","name":"Av. Diputación (Ambulatorio)","services":"Servicios no disponibles","transit_service_type_id":1,"nextbuses":"L1 - 16:44;L1 - 16:57#L8 - 17:27;L8 - 18:47","help":"element.bus.line.L1;element.bus.help.line.L1#element.bus.line.L8;element.bus.help.line.L8"}},{"type":"Feature","id":"bus_stop3.fid-730f3da1_14a2e98e256_3a65","geometry":{"type":"Point","coordinates":[-0.047584,39.990513]},"geometry_name":"location","properties":{"id":1718,"address":"Cardenal Costa,nº 28","code":"888","name":"Cardenal Costa,nº 28","services":"Servicios no disponibles","transit_service_type_id":1,"nextbuses":"Empty","help":null}},{"type":"Feature","id":"bus_stop3.fid-730f3da1_14a2e98e256_3a66","geometry":{"type":"Point","coordinates":[-0.044606,39.988959]},"geometry_name":"location","properties":{"id":1721,"address":"Paseo Ribalta, nº20","code":"891","name":"Paseo Ribalta, nº20","services":"Servicios no disponibles","transit_service_type_id":1,"nextbuses":"L12 - 16:43;L12 - 17:44#L15 - 16:48;L15 - 17:23","help":"element.bus.line.L12;element.bus.help.line.L12#element.bus.line.L15;element.bus.help.line.L15"}},{"type":"Feature","id":"bus_stop3.fid-730f3da1_14a2e98e256_3a67","geometry":{"type":"Point","coordinates":[-0.044571,39.98895]},"geometry_name":"location","properties":{"id":1723,"address":"Paseo Ribalta,nº 20","code":"893","name":"Paseo Ribalta,nº 20","services":"Servicios no disponibles","transit_service_type_id":1,"nextbuses":"Empty","help":null}},{"type":"Feature","id":"bus_stop3.fid-730f3da1_14a2e98e256_3a68","geometry":{"type":"Point","coordinates":[-0.047493,39.990456]},"geometry_name":"location","properties":{"id":1734,"address":"Cardenal Costa, nº28","code":"903","name":"Cardenal Costa, nº28","services":"Servicios no disponibles","transit_service_type_id":1,"nextbuses":"L10 - 16:38;L10 - 17:16#L13 - 17:01;L13 - 17:04#L15 - 16:49;L15 - 17:24","help":"element.bus.line.L10;element.bus.help.line.L10#element.bus.line.L13;element.bus.help.line.L13#element.bus.line.L15;element.bus.help.line.L15"}},{"type":"Feature","id":"bus_stop3.fid-730f3da1_14a2e98e256_3a69","geometry":{"type":"Point","coordinates":[-0.045923,39.989651]},"geometry_name":"location","properties":{"id":1814,"address":"Cardenal Costa, nº8","code":"976","name":"Cardenal Costa, nº8","services":"Servicios no disponibles","transit_service_type_id":1,"nextbuses":"L10 - 16:37;L10 - 17:15#L13 - 17:01;L13 - 17:03","help":"element.bus.line.L10;element.bus.help.line.L10#element.bus.line.L13;element.bus.help.line.L13"}},{"type":"Feature","id":"bus_stop3.fid-730f3da1_14a2e98e256_3a6a","geometry":{"type":"Point","coordinates":[-0.065987,39.996952]},"geometry_name":"location","properties":{"id":1815,"address":"Grupo Roser B","code":"977","name":"Grupo Roser B","services":"Servicios no disponibles","transit_service_type_id":1,"nextbuses":"L13 - 18:04;L13 - 18:04","help":"element.bus.line.L13;element.bus.help.line.L13"}},{"type":"Feature","id":"bus_stop3.fid-730f3da1_14a2e98e256_3a6b","geometry":{"type":"Point","coordinates":[-0.065422,39.997019]},"geometry_name":"location","properties":{"id":1816,"address":"Grupo Roser A","code":"978","name":"Grupo Roser A","services":"Servicios no disponibles","transit_service_type_id":1,"nextbuses":"L13 - 17:06;L13 - 17:06","help":"element.bus.line.L13;element.bus.help.line.L13"}},{"type":"Feature","id":"bus_stop3.fid-730f3da1_14a2e98e256_3a6c","geometry":{"type":"Point","coordinates":[-0.041098,39.989122]},"geometry_name":"location","properties":{"id":1819,"address":"Ronda Magdalena, nº23","code":"981","name":"Ronda Magdalena, nº23","services":"Servicios no disponibles","transit_service_type_id":1,"nextbuses":"L2 - 16:50;L2 - 17:20#L10 - 17:13;L10 - 17:53","help":"element.bus.line.L2;element.bus.help.line.L2#element.bus.line.L10;element.bus.help.line.L10"}},{"type":"Feature","id":"bus_stop3.fid-730f3da1_14a2e98e256_3a6d","geometry":{"type":"Point","coordinates":[-0.030669,39.9909]},"geometry_name":"location","properties":{"id":1820,"address":"Av. de Lledó","code":"982","name":"Av. de Lledó","services":"Servicios no disponibles","transit_service_type_id":1,"nextbuses":"Empty","help":null}},{"type":"Feature","id":"bus_stop3.fid-730f3da1_14a2e98e256_3a6e","geometry":{"type":"Point","coordinates":[-0.02055,39.997909]},"geometry_name":"location","properties":{"id":1821,"address":"Basílica de Lledó","code":"983","name":"Basílica de Lledó","services":"Servicios no disponibles","transit_service_type_id":1,"nextbuses":"Empty","help":null}},{"type":"Feature","id":"bus_stop3.fid-730f3da1_14a2e98e256_3a6f","geometry":{"type":"Point","coordinates":[-0.033702,39.989275]},"geometry_name":"location","properties":{"id":1822,"address":"Av.de Lledó 3 (Pza. Mª Agustina)","code":"984","name":"Av.de Lledó 3 (Pza. Mª Agustina)","services":"Servicios no disponibles","transit_service_type_id":1,"nextbuses":"Empty","help":null}},{"type":"Feature","id":"bus_stop3.fid-730f3da1_14a2e98e256_3a70","geometry":{"type":"Point","coordinates":[-0.030757,39.991028]},"geometry_name":"location","properties":{"id":1823,"address":"Av. de Lledó (Colegio Consolación)","code":"985","name":"Av. de Lledó (Colegio Consolación)","services":"Servicios no disponibles","transit_service_type_id":1,"nextbuses":"Empty","help":null}},{"type":"Feature","id":"bus_stop3.fid-730f3da1_14a2e98e256_3a71","geometry":{"type":"Point","coordinates":[-0.0336,39.989182]},"geometry_name":"location","properties":{"id":1824,"address":"Av. Lledó 12, Pza. Mª Agustina","code":"986","name":"Av. Lledó 12, Pza. Mª Agustina","services":"Servicios no disponibles","transit_service_type_id":1,"nextbuses":"Empty","help":null}},{"type":"Feature","id":"bus_stop3.fid-730f3da1_14a2e98e256_3a72","geometry":{"type":"Point","coordinates":[-0.03792,39.988951]},"geometry_name":"location","properties":{"id":1825,"address":"Plaza Clavé","code":"987","name":"Plaza Clavé","services":"Servicios no disponibles","transit_service_type_id":1,"nextbuses":"L11 - 16:36;L11 - 17:04","help":"element.bus.line.L11;element.bus.help.line.L11"}},{"type":"Feature","id":"bus_stop3.fid-730f3da1_14a2e98e256_3a73","geometry":{"type":"Point","coordinates":[-0.025228,39.994021]},"geometry_name":"location","properties":{"id":1826,"address":"Auditorio/Palacio de Congresos","code":"988","name":"Auditorio/Palacio de Congresos","services":"Servicios no disponibles","transit_service_type_id":1,"nextbuses":"Empty","help":null}},{"type":"Feature","id":"bus_stop3.fid-730f3da1_14a2e98e256_3a74","geometry":{"type":"Point","coordinates":[-0.027328,39.991247]},"geometry_name":"location","properties":{"id":1840,"address":"Pintor Carbó","code":"1010","name":"Pintor Carbó","services":"Servicios no disponibles","transit_service_type_id":1,"nextbuses":"Empty","help":null}},{"type":"Feature","id":"bus_stop3.fid-730f3da1_14a2e98e256_3a75","geometry":{"type":"Point","coordinates":[-0.052277,40.000378]},"geometry_name":"location","properties":{"id":1841,"address":"Quadra Segona, nº57","code":"1011","name":"Quadra Segona, nº57","services":"Servicios no disponibles","transit_service_type_id":1,"nextbuses":"Empty","help":null}},{"type":"Feature","id":"bus_stop3.fid-730f3da1_14a2e98e256_3a76","geometry":{"type":"Point","coordinates":[-0.048031,40.001883]},"geometry_name":"location","properties":{"id":1842,"address":"Quadra Segona,nº15","code":"1012","name":"Quadra Segona,nº15","services":"Servicios no disponibles","transit_service_type_id":1,"nextbuses":"Empty","help":null}},{"type":"Feature","id":"bus_stop3.fid-730f3da1_14a2e98e256_3a77","geometry":{"type":"Point","coordinates":[-0.06958,39.997287]},"geometry_name":"location","properties":{"id":1843,"address":"U.J.I. rotonda","code":"1013","name":"U.J.I. rotonda","services":"Servicios no disponibles","transit_service_type_id":1,"nextbuses":"Empty","help":null}},{"type":"Feature","id":"bus_stop3.fid-730f3da1_14a2e98e256_3a78","geometry":{"type":"Point","coordinates":[-0.068507,39.998277]},"geometry_name":"location","properties":{"id":1844,"address":"Rotonda (escult. silla) A","code":"1014","name":"Rotonda (escult. silla) A","services":"Servicios no disponibles","transit_service_type_id":1,"nextbuses":"Empty","help":null}},{"type":"Feature","id":"bus_stop3.fid-730f3da1_14a2e98e256_3a79","geometry":{"type":"Point","coordinates":[-0.028452,39.99151]},"geometry_name":"location","properties":{"id":1845,"address":"Pintor Carbó (Parque)","code":"1015","name":"Pintor Carbó (Parque)","services":"Servicios no disponibles","transit_service_type_id":1,"nextbuses":"Empty","help":null}},{"type":"Feature","id":"bus_stop3.fid-730f3da1_14a2e98e256_3a7a","geometry":{"type":"Point","coordinates":[-0.026571,39.991416]},"geometry_name":"location","properties":{"id":1846,"address":"Pintor Carbó (Esq. Columbretes)","code":"1016","name":"Pintor Carbó (Esq. Columbretes)","services":"Servicios no disponibles","transit_service_type_id":1,"nextbuses":"Empty","help":null}},{"type":"Feature","id":"bus_stop3.fid-730f3da1_14a2e98e256_3a7b","geometry":{"type":"Point","coordinates":[-0.053452,39.996211]},"geometry_name":"location","properties":{"id":1847,"address":"Grupo S. Enrique","code":"1017","name":"Grupo S. Enrique","services":"Servicios no disponibles","transit_service_type_id":1,"nextbuses":"Empty","help":null}},{"type":"Feature","id":"bus_stop3.fid-730f3da1_14a2e98e256_3a7c","geometry":{"type":"Point","coordinates":[-0.047012,39.998623]},"geometry_name":"location","properties":{"id":1848,"address":"Grupo S.Marcos y S.Agustin","code":"1018","name":"Grupo S.Marcos y S.Agustin","services":"Servicios no disponibles","transit_service_type_id":1,"nextbuses":"Empty","help":null}},{"type":"Feature","id":"bus_stop3.fid-730f3da1_14a2e98e256_3a7d","geometry":{"type":"Point","coordinates":[-0.050692,39.997203]},"geometry_name":"location","properties":{"id":1849,"address":"Quadra Borriolenc, nº10","code":"1019","name":"Quadra Borriolenc, nº10","services":"Servicios no disponibles","transit_service_type_id":1,"nextbuses":"Empty","help":null}},{"type":"Feature","id":"bus_stop3.fid-730f3da1_14a2e98e256_3a7e","geometry":{"type":"Point","coordinates":[-0.053374,39.996119]},"geometry_name":"location","properties":{"id":1850,"address":"Quadra Borriolenc (S.Enrique)","code":"1020","name":"Quadra Borriolenc (S.Enrique)","services":"Servicios no disponibles","transit_service_type_id":1,"nextbuses":"Empty","help":null}},{"type":"Feature","id":"bus_stop3.fid-730f3da1_14a2e98e256_3a7f","geometry":{"type":"Point","coordinates":[-0.050685,39.997095]},"geometry_name":"location","properties":{"id":1851,"address":"Quadra Borriolenc (S.Bartolomé)","code":"1021","name":"Quadra Borriolenc (S.Bartolomé)","services":"Servicios no disponibles","transit_service_type_id":1,"nextbuses":"Empty","help":null}},{"type":"Feature","id":"bus_stop3.fid-730f3da1_14a2e98e256_3a80","geometry":{"type":"Point","coordinates":[-0.075135,40.001039]},"geometry_name":"location","properties":{"id":1852,"address":"Camino Enramada","code":"1022","name":"Camino Enramada","services":"Servicios no disponibles","transit_service_type_id":1,"nextbuses":"Empty","help":null}},{"type":"Feature","id":"bus_stop3.fid-730f3da1_14a2e98e256_3a81","geometry":{"type":"Point","coordinates":[-0.075341,40.001981]},"geometry_name":"location","properties":{"id":1853,"address":"Rotonda Hospital La Magdalena","code":"1023","name":"Rotonda Hospital La Magdalena","services":"Servicios no disponibles","transit_service_type_id":1,"nextbuses":"Empty","help":null}},{"type":"Feature","id":"bus_stop3.fid-730f3da1_14a2e98e256_3a82","geometry":{"type":"Point","coordinates":[-0.04657,39.991487]},"geometry_name":"location","properties":{"id":1854,"address":"Av. Espronceda","code":"1024","name":"Av. Espronceda","services":"Servicios no disponibles","transit_service_type_id":1,"nextbuses":"L11 - 16:39;L11 - 17:07","help":"element.bus.line.L11;element.bus.help.line.L11"}},{"type":"Feature","id":"bus_stop3.fid-730f3da1_14a2e98e256_3a83","geometry":{"type":"Point","coordinates":[-0.041468,39.990041]},"geometry_name":"location","properties":{"id":1855,"address":"Joaquín Costa 9","code":"1025","name":"Joaquín Costa 9","services":"Servicios no disponibles","transit_service_type_id":1,"nextbuses":"L10 - 16:41;L10 - 17:20#L11 - 16:40;L11 - 17:08","help":"element.bus.line.L10;element.bus.help.line.L10#element.bus.line.L11;element.bus.help.line.L11"}}],"crs":{"type":"EPSG","properties":{"code":"4326"}}}